code,name,city,country,timezone,lat,lng,terminal,gate
BBA,Balmaceda,Balmaceda,Chile,America/Santiago,-45.916058,-71.689475,,
SCQ,Santiago,Santiago,Spain,Europe/Madrid,42.896333,-8.415144,,
JRH,Jorhat,Jorhat,India,Asia/Kolkata,26.731528,94.175536,,
SCU,Antonio Maceo Intl,Santiago De Cuba,Cuba,America/Havana,19.969769,-75.835414,,
SCT,Socotra Intl,Socotra,Yemen,Asia/Aden,12.630672,53.905778,,
JRO,Kilimanjaro Intl,Kilimanjaro,Tanzania,Africa/Dar_es_Salaam,-3.429406,37.074461,,
SCW,Syktyvkar,Syktyvkar,Russia,Europe/Moscow,61.64705,50.84505,,
SCV,Stefan Cel Mare,Suceava,Romania,Europe/Bucharest,47.6875,26.354056,,
BBI,Bhubaneshwar,Bhubaneswar,India,Asia/Kolkata,20.244364,85.817781,,
SCY,San Cristóbal Airport,San Cristóbal,Ecuador,Pacific/Galapagos,-0.910206,-89.61745,,
SCX,Salina Cruz Naval Air Station,Salina Cruz,Mexico,America/Mexico_City,16.2126,-95.2016,,
BBK,Kasane,Kasane,Botswana,Africa/Gaborone,-17.832875,25.1624,,
BBO,Berbera,Berbera,Somalia,Africa/Mogadishu,10.389167,44.941106,,
BBN,Bario Airport,Bario,Malaysia,Asia/Kuching,3.73389,115.479,,
BBS,Blackbushe,Blackbushe,United Kingdom,Europe/London,51.323889,-0.8475,,
SDD,Lubango,Lubango,Angola,Africa/Luanda,-14.924733,13.575022,,
BBU,Aurel Vlaicu,Bucharest,Romania,Europe/Bucharest,44.503194,26.102111,,
SDF,Louisville International Airport,Louisville,United States,America/Kentucky/Louisville,38.1740858,-85.7364989,,
SDE,Santiago Del Estero,Santiago Del Estero,Argentina,America/Argentina/Catamarca,-27.765617,-64.310122,,
SDG,Sanandaj,Sanandaj,Iran,Asia/Tehran,35.245856,47.009247,,
SDJ,Sendai,Sendai,Japan,Asia/Tokyo,38.139722,140.916944,,
JSA,Jaisalmer,Jaisalmer,India,Asia/Kolkata,26.888653,70.864967,,
SDL,Sundsvall Harnosand,Sundsvall,Sweden,Europe/Stockholm,62.528125,17.443928,,
SDK,Sandakan,Sandakan,Malaysia,Asia/Kuching,5.900897,118.059486,,
SDN,Anda Airport,Sandane,Norway,Europe/Oslo,61.83,6.10583,,
SDP,Sand Point Airport,Sand Point,United States,America/Anchorage,55.315,-160.523,,
BCA,Gustavo Rizo,Baracoa Playa,Cuba,America/Havana,20.365317,-74.506206,,
JSI,Alexandros Papadiamantis,Skiathos,Greece,Europe/Athens,39.1771,23.503675,,
SDQ,Las Americas Intl,Santo Domingo,Dominican Republic,America/Santo_Domingo,18.429664,-69.668925,,
BCD,Bacolod,Bacolod,Philippines,Asia/Manila,10.642511,122.929617,,
SDT,Saidu Sharif,Saidu Sharif,Pakistan,Asia/Karachi,34.813556,72.352814,,
SDV,Sde Dov,Tel-aviv,Israel,Asia/Jerusalem,32.114661,34.782239,,
SDU,Santos Dumont,Rio De Janeiro,Brazil,America/Bahia,-22.910461,-43.163133,,
JSR,Jessore,Jessore,Bangladesh,Asia/Dhaka,23.1838,89.160833,,
SDY,Sidney-Richland Municipal Airport,Sidney,United States,America/Denver,47.706944,-104.1925,,
BCL,Barra del Colorado Airport,Pococi,Costa Rica,America/Costa_Rica,10.768736,-83.585614,,
BCN,Barcelona,Barcelona,Spain,Europe/Madrid,41.297078,2.078464,,
BCM,Bacau,Bacau,Romania,Europe/Bucharest,46.521946,26.910278,,
JSU,Maniitsoq Airport,Maniitsoq,Greenland,America/Godthab,65.4125,-52.9394,,
SEA,Seattle Tacoma Intl,Seattle,United States,America/Los_Angeles,47.449,-122.309306,,
SEB,Sebha,Sebha,Libya,Africa/Tripoli,26.986964,14.472525,,
SEN,Southend,Southend,United Kingdom,Europe/London,51.571389,0.695556,,
BDA,Bermuda Intl,Bermuda,Bermuda,Atlantic/Bermuda,32.364042,-64.678703,,
BDB,Bundaberg,Bundaberg,Australia,Australia/Brisbane,-24.903889,152.318611,,
BDD,Badu Island Airport,Badu Island,Australia,Australia/Lindeman,-10.15,141.175,,
SEW,,,,Africa/Cairo,0,0,,
BDH,Bandar Lengeh,Bandar Lengeh,Iran,Asia/Tehran,26.532,54.824847,,
BDJ,Syamsudin Noor,Banjarmasin,Indonesia,Asia/Makassar,-3.442356,114.762553,,
JTR,Santorini,Thira,Greece,Europe/Athens,36.399169,25.479333,,
SEZ,Seychelles Intl,Mahe,Seychelles,Indian/Mahe,-4.674342,55.521839,,
BDL,Bradley Intl,Windsor Locks,United States,America/New_York,41.938889,-72.683222,,
BDO,Husein Sastranegara,Bandung,Indonesia,Asia/Jakarta,-6.900625,107.576294,,
BDQ,Vadodara,Baroda,India,Asia/Kolkata,22.336164,73.226289,,
SFB,Orlando Sanford Intl,Sanford,United States,America/Kentucky/Monticello,28.777639,-81.237489,,
BDP,Chandragadhi Airport,Chandragarhi,Nepal,Asia/Kathmandu,26.570822,88.079578,,
SFA,Thyna,Sfax,Tunisia,Africa/Tunis,34.717953,10.690972,,
BDS,Casale,Brindisi,Italy,Europe/Rome,40.657633,17.947033,,
SFD,San Fernando De Apure,San Fernando De Apure,Venezuela,America/Caracas,7.883317,-67.444025,,
BDR,Igor I Sikorsky Mem,Stratford,United States,America/New_York,41.163472,-73.126167,,
SFG,Grand Case,St. Martin,Guadeloupe,America/Guadeloupe,18.099914,-63.047197,,
JUB,Juba,Juba,South Sudan,Africa/Khartoum,4.872006,31.601117,,
SFL,,,,Atlantic/Cape_Verde,0,0,,
SFN,Sauce Viejo,Santa Fe,Argentina,America/Argentina/Cordoba,-31.711666,-60.811668,,
SFO,San Francisco Intl,San Francisco,United States,America/Los_Angeles,37.618972,-122.374889,,
BEB,Benbecula,Benbecula,United Kingdom,Europe/London,57.481111,-7.362778,,
JUJ,Jujuy,Jujuy,Argentina,America/Argentina/Jujuy,-24.392778,-65.097778,,
JUL,Juliaca,Juliaca,Peru,America/Lima,-15.467103,-70.158169,,
SFT,Skelleftea,Skelleftea,Sweden,Europe/Stockholm,64.624772,21.076892,,
JUM,Jumla,Jumla,Nepal,Asia/Kathmandu,29.274167,82.193333,,
BEG,Beograd,Belgrade,Serbia,Europe/Belgrade,44.818444,20.309139,,
BEL,Val De Cans Intl,Belem,Brazil,America/Belem,-1.37925,-48.476292,,
BEN,Benina,Benghazi,Libya,Africa/Tripoli,32.096786,20.269472,,
JUV,Upernavik Airport,Upernavik,Greenland,America/Godthab,72.7902,-56.1306,,
JUZ,Quzhou Airport,Quzhou,China,Asia/Shanghai,28.9658,118.899,,
SGC,Surgut,Surgut,Russia,Asia/Yekaterinburg,61.343694,73.401842,,
BET,Bethel,Bethel,United States,America/Nome,60.779778,-161.838,,
BES,Guipavas,Brest,France,Europe/Paris,48.447911,-4.418539,,
SGD,Sonderborg,Soenderborg,Denmark,Europe/Copenhagen,54.964367,9.791731,,
BEU,Bedourie Airport,Bedourie,Australia,Australia/Broken_Hill,-24.3461,139.46,,
SGF,Springfield Branson Natl,Springfield,United States,America/Chicago,37.245667,-93.388639,,
JVA,Ankavandra Airport,Ankavandra,Madagascar,Indian/Antananarivo,-18.8,45.283,,
BEW,Beira,Beira,Mozambique,Africa/Maputo,-19.796419,34.907556,,
BEY,Rafic Hariri Intl,Beirut,Lebanon,Asia/Beirut,33.820931,35.488389,,
SGO,St George Airport,St George,Australia,Australia/Brisbane,-28.0497,148.595,,
SGN,Tansonnhat Intl,Ho Chi Minh City,Vietnam,Asia/Ho_Chi_Minh,10.818797,106.651856,,
BFF,Western Nebraska Regional Airport,Scottsbluff,United States,America/Denver,41.874,-103.596,,
BFI,Boeing Fld King Co Intl,Seattle,United States,America/Los_Angeles,47.53,-122.301947,,
SGY,Skagway Airport,Skagway,United States,America/Juneau,59.4601,-135.316,,
SGX,,,,Africa/Dar_es_Salaam,0,0,,
BFL,Meadows Fld,Bakersfield,United States,America/Los_Angeles,35.433598,-119.05677,,
SHB,Nakashibetsu,Nakashibetsu,Japan,Asia/Tokyo,43.5775,144.96,,
SHA,Hongqiao Intl,Shanghai,China,Asia/Shanghai,31.197875,121.336319,,
BFS,Belfast Intl,Belfast,United Kingdom,Europe/London,54.6575,-6.215833,,
SHC,Shire Inda Selassie Airport,Shire Indasilase,Ethiopia,Africa/Addis_Ababa,14.0781,38.2725,,
SHE,Shenyang Taoxian International Airport,Shenyang,China,Asia/Harbin,41.3824,123.2901,,
SHH,Shishmaref Airport,Shishmaref,United States,America/Nome,66.2496,-166.089,,
BFV,Buri Ram,Buri Ram,Thailand,Asia/Bangkok,15.229539,103.253231,,
SHG,Shungnak Airport,Shungnak,United States,America/Nome,66.888056,-157.1625,,
SHJ,Sharjah Intl,Sharjah,United Arab Emirates,Asia/Dubai,25.328575,55.51715,,
SHL,Shillong Airport,Shillong,India,Asia/Kolkata,25.7036,91.9787,,
SHP,Shanhaiguan Airport,Qinhuangdao,China,Asia/Harbin,39.9681,119.731,,
SHR,Sheridan County Airport,Sheridan,United States,America/Denver,44.7692,-106.98,,
BGA,Palonegro,Bucaramanga,Colombia,America/Bogota,7.1265,-73.184778,,
BGF,Bangui M Poko,Bangui,Central African Republic,Africa/Bangui,4.398475,18.518786,,
SHV,Shreveport Rgnl,Shreveport,United States,America/Chicago,32.446629,-93.8256,,
SHX,Shageluk Airport,Shageluk,United States,America/Nome,62.692222,-159.569167,,
SHW,Sharurah,Sharurah,Saudi Arabia,Asia/Riyadh,17.466875,47.121431,,
BGI,Grantley Adams Intl,Bridgetown,Barbados,America/Barbados,13.074603,-59.492456,,
SHY,Shinyanga Airport,Shinyanga,Tanzania,Africa/Dar_es_Salaam,-3.667,33.417,,
BGM,Greater Binghamton Edwin A Link Fld,Binghamton,United States,America/New_York,42.208689,-75.979839,,
SIA,Xi\'An Xiguan,Xi\'AN,China,Asia/Shanghai,34.3767,109.12,,
BGO,Flesland,Bergen,Norway,Europe/Oslo,60.293386,5.218142,,
BGR,Bangor Intl,Bangor,United States,America/New_York,44.807444,-68.828139,,
SIC,Sinop Airport,Sinop,Turkey,Europe/Istanbul,42.0158,35.0664,,
SID,Amilcar Cabral Intl,Amilcar Cabral,Cape Verde,Atlantic/Cape_Verde,16.741389,-22.949444,,
SIG,Fernando Luis Ribas Dominicci,San Juan,Puerto Rico,America/Puerto_Rico,18.456828,-66.098139,,
SIF,Simara,Simara,Nepal,Asia/Kathmandu,27.159456,84.980122,,
BGW,Baghdad International Airport,Baghdad,Iraq,Asia/Baghdad,33.262539,44.234578,,
BGY,Bergamo Orio Al Serio,Bergamo,Italy,Europe/Rome,45.673889,9.704166,,
SIN,Changi Intl,Singapore,Singapore,Asia/Singapore,1.350189,103.994433,,
SIP,Simferopol Intl,Simferopol,Ukraine,Europe/Simferopol,45.052222,33.975139,,
BHB,Hancock County - Bar Harbor,Bar Harbor,United States,America/New_York,44.4497689,-68.3615653,,
BHD,Belfast City,Belfast,United Kingdom,Europe/London,54.618056,-5.8725,,
SIT,Sitka Rocky Gutierrez,Sitka,United States,America/Juneau,57.047138,-135.361611,,
BHG,Brus Laguna Airport,Brus Laguna,Honduras,America/Tegucigalpa,15.7631,-84.5436,,
BHI,Comandante Espora,Bahia Blanca,Argentina,America/Argentina/Buenos_Aires,-38.724967,-62.169317,,
BHH,Bisha,Bisha,Saudi Arabia,Asia/Riyadh,19.98435,42.620881,,
BHK,Bukhara,Bukhara,Uzbekistan,Asia/Samarkand,39.775,64.483333,,
BHJ,Bhuj,Bhuj,India,Asia/Kolkata,23.287828,69.670147,,
BHM,Birmingham Intl,Birmingham,United States,America/Chicago,33.562942,-86.75355,,
BHO,Bhopal,Bhopal,India,Asia/Kolkata,23.287467,77.337375,,
BHQ,Broken Hill Airport,Broken Hill,Australia,Australia/Broken_Hill,-32.0014,141.472,,
BHS,Bathurst Airport,Bathurst,Australia,Australia/Brisbane,-33.4094,149.652,,
SJD,Los Cabos Intl,San Jose Del Cabo,Mexico,America/Mazatlan,23.15185,-109.721044,,
BHR,Bharatpur Airport,Bharatpur,Nepal,Asia/Kathmandu,27.6781,84.4294,,
SJC,Norman Y Mineta San Jose Intl,San Jose,United States,America/Los_Angeles,37.3626,-121.929022,,
BHU,Bhavnagar,Bhaunagar,India,Asia/Kolkata,21.752206,72.185181,,
SJE,Jorge E Gonzalez Torres,San Jose Del Guaviare,Colombia,America/Bogota,2.579694,-72.639358,,
BHV,Bahawalpur Airport,Bahawalpur,Pakistan,Asia/Karachi,29.3481,71.717981,,
BHY,Beihai Airport,Beihai,China,Asia/Shanghai,21.5394,109.294,,
SJJ,Sarajevo,Sarajevo,Bosnia and Herzegovina,Europe/Belgrade,43.824583,18.331467,,
BHX,Birmingham,Birmingham,United Kingdom,Europe/London,52.453856,-1.748028,,
SJI,Antique,San Jose,Philippines,Asia/Manila,10.766044,121.933439,,
SJP,Sao Jose Do Rio Preto,Sao Jose Do Rio Preto,Brazil,America/Campo_Grande,-20.816567,-49.406511,,
SJO,Juan Santamaria Intl,San Jose,Costa Rica,America/Costa_Rica,9.993861,-84.208806,,
BIA,Poretta,Bastia,France,Europe/Paris,42.552664,9.483731,,
BID,Block Island State Airport,Block Island,United States,America/New_York,41.168056,-71.577778,,
SJT,San Angelo Rgnl Mathis Fld,San Angelo,United States,America/Chicago,31.35775,-100.496306,,
SJU,Luis Munoz Marin Intl,San Juan,Puerto Rico,America/Puerto_Rico,18.439417,-66.001833,,
SJW,Shijiazhuang Daguocun International Airport,Shijiazhuang,China,Asia/Shanghai,38.280686,114.6973,,
SJZ,Sao Jorge,Sao Jorge Island,Portugal,Atlantic/Azores,38.6655,-28.175817,,
BII,Enyu Airfield,Bikini Atoll,Marshall Islands,Pacific/Kwajalein,11.5225,165.565,,
SJY,Seinäjoki Airport,Seinäjoki / Ilmajoki,Finland,Europe/Helsinki,62.6921,22.8323,,
BIL,Billings Logan International Airport,Billings,United States,America/Boise,45.80921,-108.537654,,
BIK,Frans Kaisiepo,Biak,Indonesia,Asia/Jayapura,-1.190017,136.107997,,
JYV,Jyvaskyla,Jyvaskyla,Finland,Europe/Helsinki,62.399453,25.678253,,
BIM,South Bimini,Alice Town,Bahamas,UTC,25.699881,-79.264656,,
BIO,Bilbao,Bilbao,Spain,Europe/Madrid,43.301097,-2.910608,,
BIR,Biratnagar,Biratnagar,Nepal,Asia/Kathmandu,26.481453,87.264036,,
SKC,Suki Airport,Suki,Papua New Guinea,Pacific/Port_Moresby,-8.033,141.717,,
BIQ,Anglet,Biarritz-bayonne,France,Europe/Paris,43.468419,-1.523325,,
SKB,Robert L Bradshaw,Basse Terre,Saint Kitts and Nevis,America/St_Kitts,17.311194,-62.718667,,
SKE,Geiteryggen,Skien,Norway,Europe/Oslo,59.185,9.566944,,
BIS,Bismarck Municipal Airport,Bismarck,United States,America/North_Dakota/Center,46.775842,-100.757931,,
SKD,Samarkand,Samarkand,Uzbekistan,Asia/Samarkand,39.700547,66.983829,,
SKG,Makedonia,Thessaloniki,Greece,Europe/Athens,40.519725,22.97095,,
SKH,Surkhet,Surkhet,Nepal,Asia/Kathmandu,28.586,81.636,,
SKK,Shaktoolik Airport,Shaktoolik,United States,America/Nome,64.371111,-161.223889,,
SKO,Sadiq Abubakar Iii Intl,Sokoto,Nigeria,Africa/Lagos,12.916322,5.207189,,
SKN,Skagen,Stokmarknes,Norway,Europe/Oslo,68.580833,15.026111,,
BJA,Soummam,Bejaja,Algeria,Africa/Algiers,36.711997,5.069922,,
JZH,Jiuzhaigou Huanglong,Jiuzhaigou,China,Asia/Chongqing,32.857,103.683,,
SKP,Skopje,Skopje,Macedonia,Europe/Belgrade,41.961622,21.621381,,
BJB,Bojnourd Airport,Bojnourd,Iran,Asia/Tehran,37.492958,57.308219,,
SKT,Sialkot Airport,Sialkot,Pakistan,UTC,32.5356,74.3639,,
BJF,Batsfjord,Batsfjord,Norway,Europe/Oslo,70.600278,29.6925,,
BJI,Bemidji Regional Airport,Bemidji,United States,America/North_Dakota/Center,47.510722,-94.934722,,
SKZ,Sukkur,Sukkur,Pakistan,Asia/Karachi,27.721989,68.791683,,
BJM,Bujumbura Intl,Bujumbura,Burundi,Africa/Bujumbura,-3.324019,29.318519,,
BJL,Banjul Intl,Banjul,Gambia,Africa/Banjul,13.337961,-16.652206,,
SLA,Salta,Salta,Argentina,America/Argentina/Jujuy,-24.855978,-65.486169,,
BJR,Bahir Dar,Bahar Dar,Ethiopia,Africa/Addis_Ababa,11.608075,37.321644,,
SLC,Salt Lake City Intl,Salt Lake City,United States,America/Boise,40.788389,-111.977772,,
SLH,Sola Airport,Sola,Vanuatu,Pacific/Efate,-13.8517,167.537,,
BJV,Bodrum - Milas,Bodrum,Turkey,Europe/Istanbul,37.249,27.667,,
BJX,Guanajuato Intl,Del Bajio,Mexico,America/Mexico_City,20.993464,-101.480847,,
SLI,Solwesi Airport,Solwesi,Zambia,Africa/Lusaka,-12.1737,26.3651,,
SLL,Salalah,Salalah,Oman,Asia/Muscat,17.038719,54.091297,,
BJZ,Talavera La Real,Badajoz,Spain,Europe/Madrid,38.89125,-6.821333,,
SLK,Adirondack Regional Airport,Saranac Lake,United States,America/New_York,44.3853,-74.2062,,
SLN,Salina Municipal Airport,Salina,United States,America/Chicago,38.791,-97.6522,,
SLM,Salamanca,Salamanca,Spain,Europe/Madrid,40.952117,-5.501986,,
SLP,Ponciano Arriaga Intl,San Luis Potosi,Mexico,America/Mexico_City,22.254303,-100.930806,,
BKA,Bykovo,Moscow,Russia,Europe/Moscow,55.617222,38.059999,,
SLQ,Sleetmute Airport,Sleetmute,United States,America/Anchorage,61.700566,-157.165833,,
BKC,Buckland Airport,Buckland,United States,America/Nome,65.981667,-161.149167,,
SLU,George F L Charles,Castries,Saint Lucia,America/St_Lucia,14.020228,-60.992936,,
SLX,Salt Cay Airport,Salt Cay,Turks and Caicos Islands,America/Grand_Turk,21.333,-71.2,,
SLW,Plan De Guadalupe Intl,Saltillo,Mexico,America/Monterrey,25.549497,-100.928669,,
SLZ,Marechal Cunha Machado Intl,Sao Luis,Brazil,America/Belem,-2.585361,-44.234139,,
BKI,Kota Kinabalu Intl,Kota Kinabalu,Malaysia,Asia/Kuching,5.937208,116.051181,,
BKL,Burke Lakefront Airport,Cleveland,United States,America/Detroit,41.5175,-81.683333,,
BKK,Suvarnabhumi Intl,Bangkok,Thailand,Asia/Bangkok,13.681108,100.747283,,
BKM,Bakalalan Airport,Bakalalan,Malaysia,Asia/Kuching,3.974,115.618,,
SMA,Santa Maria,Santa Maria (island),Portugal,Atlantic/Azores,36.97139,-25.170639,,
BKO,Senou,Bamako,Mali,Africa/Bamako,12.533544,-7.949944,,
BKS,Fatmawati Soekarno,Bengkulu,Indonesia,Asia/Jakarta,-3.8637,102.339036,,
SMF,Sacramento Intl,Sacramento,United States,America/Los_Angeles,38.695417,-121.590778,,
SMI,Samos,Samos,Greece,Europe/Athens,37.689999,26.911667,,
SMK,St. Michael Airport,St. Michael,United States,America/Nome,63.49,-162.110278,,
BKY,Bukavu Kavumu,Bukavu/kavumu,Congo (Kinshasa),Africa/Kinshasa,-2.308978,28.808803,,
SML,Stella Maris,Stella Maris,Bahamas,America/Nassau,23.581444,-75.270475,,
SMN,Lemhi County Airport,Salmon,United States,America/Boise,45.123889,-113.881389,,
BLA,General Jose Antonio Anzoategui Intl,Barcelona,Venezuela,America/Caracas,10.107139,-64.689161,,
SMS,Sainte Marie,Sainte Marie,Madagascar,Indian/Antananarivo,-17.093889,49.815834,,
SMR,Simon Bolivar,Santa Marta,Colombia,America/Bogota,11.11965,-74.230647,,
BLE,Borlange,Borlange,Sweden,Europe/Stockholm,60.422017,15.515211,,
BLI,Bellingham Intl,Bellingham,United States,America/Los_Angeles,48.792694,-122.537528,,
SMX,Santa Maria Pub Cpt G Allan Hancock Airport,Santa Maria,United States,America/Los_Angeles,34.8989,-120.457,,
BLK,Blackpool,Blackpool,United Kingdom,Europe/London,53.771667,-3.028611,,
BLJ,Batna Airport,Batna,Algeria,Africa/Algiers,35.752106,6.308589,,
BLL,Billund,Billund,Denmark,Europe/Copenhagen,55.740322,9.151778,,
BLQ,Bologna,Bologna,Italy,Europe/Rome,44.535444,11.288667,,
SNA,John Wayne Arpt Orange Co,Santa Ana,United States,America/Los_Angeles,33.675667,-117.868222,,
BLR,Bangalore,Bangalore,India,Asia/Kolkata,12.949986,77.668206,,
SNC,General Ulpiano Paez,Salinas,Ecuador,America/Guayaquil,-2.204994,-80.988878,,
SNE,Preguica,Sao Nocolau Island,Cape Verde,Atlantic/Cape_Verde,16.588356,-24.284656,,
BLV,Scott Afb Midamerica,Belleville,United States,America/Chicago,38.545178,-89.835183,,
BLZ,Chileka Intl,Blantyre,Malawi,Africa/Blantyre,-15.679053,34.974014,,
SNN,Shannon,Shannon,Ireland,Europe/Dublin,52.701978,-8.924817,,
SNP,St Paul Island,St. Paul Island,United States,America/Nome,57.167333,-170.220444,,
SNO,Sakon Nakhon,Sakon Nakhon,Thailand,Asia/Bangkok,17.195142,104.118625,,
SNR,Montoir,St.-nazaire,France,Europe/Paris,47.312189,-2.149181,,
BMA,Bromma,Stockholm,Sweden,Europe/Stockholm,59.354372,17.94165,,
BMD,Belo sur Tsiribihina Airport,Belo sur Tsiribihina,Madagascar,Indian/Antananarivo,-19.6867,44.5419,,
BME,Broome,Broome,Australia,Australia/Perth,-17.8,122.2,,
SNU,Abel Santamaria,Santa Clara,Cuba,America/Havana,22.492192,-79.943611,,
SNW,Thandwe,Thandwe,Burma,Asia/Rangoon,18.460731,94.300119,,
BMI,Central Illinois Rgnl,Bloomington,United States,America/Chicago,40.477111,-88.915917,,
BMK,Borkum,Borkum,Germany,Europe/Berlin,53.5955,6.709167,,
BMO,Banmaw Airport,Banmaw,Burma,Asia/Rangoon,24.269033,97.246153,,
SOC,Adi Sumarmo Wiryokusumo,Solo City,Indonesia,Asia/Jakarta,-7.516089,110.756892,,
BMV,Buon Ma Thuot Airport,Buonmethuot,Vietnam,Asia/Ho_Chi_Minh,12.668311,108.120272,,
SOG,Sogndal Airport,Sogndal,Norway,Europe/Oslo,61.1561,7.13778,,
BMU,Muhammad Salahuddin,Bima,Indonesia,Asia/Makassar,-8.539647,118.687322,,
SOF,Sofia,Sofia,Bulgaria,Europe/Sofia,42.695194,23.406167,,
BMW,Bordj Badji Mokhtar Airport,Bordj Badji Mokhtar,Algeria,Africa/Algiers,21.375,0.923889,,
BMY,Belep Islands Airport,Waala,New Caledonia,Pacific/Noumea,-19.7206,163.661,,
SOJ,Sorkjosen Airport,Sorkjosen,Norway,Europe/Oslo,69.7868,20.9594,,
SOM,San Tome,San Tome,Venezuela,America/Caracas,8.945147,-64.151083,,
SON,Santo Pekoa International Airport,Santo,Vanuatu,Pacific/Efate,-15.505033,167.219742,,
BNA,Nashville Intl,Nashville,United States,America/Chicago,36.124472,-86.678194,,
SOQ,Jefman,Sorong,Indonesia,Asia/Jayapura,-0.926358,131.121194,,
BNE,Brisbane Intl,Brisbane,Australia,Australia/Brisbane,-27.384167,153.1175,,
SOU,Southampton,Southampton,United Kingdom,Europe/London,50.950261,-1.356803,,
BND,Bandar Abbass Intl,Bandar Abbas,Iran,Asia/Tehran,27.218317,56.37785,,
SOW,Show Low Regional Airport,Show Low,United States,America/Phoenix,34.265556,-110.005556,,
SOV,,,,America/Anchorage,0,0,,
BNI,Benin,Benin,Nigeria,Africa/Lagos,6.316981,5.599503,,
BNK,Ballina Byron Gateway,Ballina Byron Bay,Australia,Australia/Brisbane,-28.833889,153.5625,,
BNN,Bronnoy,Bronnoysund,Norway,Europe/Oslo,65.461111,12.2175,,
SPB,Scappoose Industrial Airpark,San Luis,United States,America/St_Thomas,45.771028,-122.861833,,
BNS,Barinas,Barinas,Venezuela,America/Caracas,8.619575,-70.220825,,
SPD,Saidpur,Saidpur,Bangladesh,Asia/Dhaka,25.759228,88.908869,,
SPC,La Palma,Santa Cruz De La Palma,Spain,Atlantic/Canary,28.626478,-17.755611,,
BNX,Banja Luka International Airport,Banja Luka,Bosnia and Herzegovina,Europe/Belgrade,44.941444,17.297501,,
SPI,Abraham Lincoln Capital,Springfield,United States,America/Chicago,39.8441,-89.677889,,
SPL,,,,Europe/Amsterdam,0,0,,
SPN,Francisco C Ada Saipan Intl,Saipan,Northern Mariana Islands,Pacific/Pago_Pago,15.119003,145.729356,,
SPP,Menongue,Menongue,Angola,Africa/Luanda,-14.657583,17.719833,,
BOB,Bora Bora,Bora Bora,French Polynesia,Pacific/Tahiti,-16.444378,-151.751286,,
SPR,San Pedro,San Pedro,Belize,America/Belize,17.913936,-87.971075,,
BOD,Merignac,Bordeaux,France,Europe/Paris,44.828335,-0.715556,,
BOC,Bocas Del Toro Intl,Bocas Del Toro,Panama,America/Panama,9.340853,-82.250842,,
SPS,Sheppard Afb Wichita Falls Muni,Wichita Falls,United States,America/Chicago,33.988797,-98.491894,,
SPU,Split,Split,Croatia,Europe/Belgrade,43.538944,16.297964,,
BOH,Bournemouth,Bournemouth,United Kingdom,Europe/London,50.78,-1.8425,,
BOG,Eldorado Intl,Bogota,Colombia,America/Bogota,4.701594,-74.146947,,
BOJ,Burgas,Bourgas,Bulgaria,Europe/Sofia,42.569583,27.515236,,
BOI,Boise Air Terminal,Boise,United States,America/Boise,43.564361,-116.222861,,
BON,Flamingo,Kralendijk,Netherlands Antilles,America/Curacao,12.131044,-68.268511,,
BOM,Chhatrapati Shivaji Intl,Mumbai,India,Asia/Kolkata,19.088686,72.867919,,
BOO,Bodo,Bodo,Norway,Europe/Oslo,67.269167,14.365278,,
BOS,General Edward Lawrence Logan Intl,Boston,United States,America/New_York,42.364347,-71.005181,,
BOW,Bartow Municipal Airport,Bartow,United States,America/Kentucky/Monticello,27.9434,-81.7834,,
KAC,Kamishly Airport,Kamishly,Syria,Asia/Damascus,37.020625,41.191394,,
BOY,Bobo Dioulasso,Bobo-dioulasso,Burkina Faso,Africa/Ouagadougou,11.160056,-4.330969,,
KAD,Kaduna,Kaduna,Nigeria,Africa/Lagos,10.696025,7.320114,,
SQO,Storuman Airport,Mohed,Sweden,Europe/Stockholm,64.960894,17.696583,,
KAJ,Kajaani,Kajaani,Finland,Europe/Helsinki,64.285472,27.692414,,
KAL,Kaltag Airport,Kaltag,United States,America/Nome,64.3191,-158.741,,
KAO,Kuusamo,Kuusamo,Finland,Europe/Helsinki,65.987575,29.239381,,
KAN,Mallam Aminu Intl,Kano,Nigeria,Africa/Lagos,12.047589,8.524622,,
KAW,Kawthoung Airport,Kawthoung,Burma,Asia/Rangoon,10.049258,98.538006,,
BPN,Sepinggan,Balikpapan,Indonesia,Asia/Makassar,-1.268272,116.894478,,
KAX,Kalbarri Airport,Kalbarri,Australia,Australia/Perth,-27.69,114.262,,
BPS,Aeroporto de Porto Seguro,Porto Seguro,Brazil,America/Bahia,-16.438611,-39.080833,,
BPT,Southeast Texas Rgnl,Beaumont,United States,America/Chicago,29.950833,-94.020694,,
SRE,Juana Azurduy De Padilla,Sucre,Bolivia,America/La_Paz,-19.007083,-65.288747,,
SRG,Achmad Yani,Semarang,Indonesia,Asia/Jakarta,-6.971447,110.374122,,
BPY,Besalampy,Besalampy,Madagascar,Indian/Antananarivo,-16.741945,44.481388,,
SRJ,Capitán Av. German Quiroga G. Airport,San Borja,Bolivia,America/La_Paz,-14.8592,-66.7375,,
BPX,Qamdo Bangda Airport,Bangda,China,Asia/Chongqing,30.5536,97.1083,,
KBC,Birch Creek Airport,Brich Creek,United States,America/Anchorage,66.256708,-145.815319,,
SRQ,Sarasota Bradenton Intl,Sarasota,United States,America/Kentucky/Monticello,27.395444,-82.554389,,
KBL,Kabul Intl,Kabul,Afghanistan,Asia/Kabul,34.565853,69.212328,,
SRV,Stony River 2 Airport,Stony River,United States,America/Anchorage,61.7875,-156.591111,,
KBP,Boryspil Intl,Kiev,Ukraine,Europe/Kiev,50.345,30.894722,,
SRX,Gardabya Airport,Sirt,Libya,Africa/Tripoli,31.0635,16.595,,
KBR,Sultan Ismail Petra,Kota Bharu,Malaysia,Asia/Kuala_Lumpur,6.16685,102.293014,,
SRZ,Santa Cruz,Santa Cruz,Bolivia,America/La_Paz,-17.8,-63.166667,,
SRY,Sari Dasht E Naz Airport,Dasht-e-naz,Iran,Asia/Tehran,36.635833,53.193611,,
BQL,Boulia Airport,Boulia,Australia,Australia/Lindeman,-22.9133,139.9,,
BQN,Rafael Hernandez,Aguadilla,Puerto Rico,America/Puerto_Rico,18.494861,-67.129444,,
KBV,Krabi,Krabi,Thailand,Asia/Bangkok,8.095969,98.988764,,
SSA,Deputado Luis Eduardo Magalhaes,Salvador,Brazil,America/Bahia,-12.910994,-38.331044,,
SSB,Christiansted Harbor Seaplane Base,Christiansted,Virgin Islands,America/St_Thomas,17.747222,-64.705,,
BQS,Ignatyevo,Blagoveschensk,Russia,Asia/Yakutsk,50.425394,127.412478,,
SSG,Malabo,Malabo,Equatorial Guinea,Africa/Malabo,3.755267,8.708717,,
KCA,Kuqa Airport,Kuqa,China,Asia/Kashgar,41.7181,82.9869,,
SSH,Sharm El Sheikh Intl,Sharm El Sheikh,Egypt,Africa/Cairo,27.977222,34.394722,,
KCC,Coffman Cove Seaplane Base,Coffman Cove,United States,America/Juneau,56.014722,-132.833889,,
SSJ,Stokka,Sandnessjoen,Norway,Europe/Oslo,65.956828,12.468944,,
KCG,,,,America/Anchorage,0,0,,
KCF,,,,Asia/Karachi,0,0,,
KCH,Kuching Intl,Kuching,Malaysia,Asia/Kuching,1.484697,110.346933,,
BRC,San Carlos De Bariloche,San Carlos De Bariloche,Argentina,America/Argentina/Mendoza,-41.151172,-71.157542,,
SSR,Sara Airport,Pentecost Island,Vanuatu,Pacific/Efate,-15.4708,168.152,,
BRE,Neuenland,Bremen,Germany,Europe/Berlin,53.0475,8.786667,,
KCM,Kahramanmaras Airport,Kahramanmaras,Turkey,Europe/Istanbul,37.539,36.9534,,
KCL,Chignik Lagoon Airport,Chignik Lagoon,United States,America/Anchorage,56.311111,-158.534167,,
BRI,Bari,Bari,Italy,Europe/Rome,41.138856,16.760594,,
KCQ,Chignik Lake Airport,Chignik Lake,United States,America/Anchorage,56.255,-158.775278,,
SSY,Mbanza Congo,M'banza-congo,Angola,Africa/Luanda,-6.269897,14.247025,,
BRM,Barquisimeto Intl,Barquisimeto,Venezuela,America/Caracas,10.042747,-69.358619,,
BRL,Southeast Iowa Regional Airport,Burlington,United States,America/Chicago,40.7832,-91.1255,,
BRO,Brownsville South Padre Island Intl,Brownsville,United States,America/Chicago,25.906833,-97.425861,,
BRN,Bern Belp,Bern,Switzerland,Europe/Zurich,46.9141,7.497153,,
BRQ,Turany,Brno,Czech Republic,Europe/Prague,49.151269,16.694433,,
BRS,Bristol,Bristol,United Kingdom,Europe/London,51.382669,-2.719089,,
STD,Mayor Buenaventura Vivas,Santo Domingo,Venezuela,America/Caracas,7.565111,-72.035125,,
BRR,Barra Airport,Barra,United Kingdom,Europe/London,57.0228,-7.44306,,
KCZ,Kochi,Kochi,Japan,Asia/Tokyo,33.546111,133.669444,,
STC,Saint Cloud Regional Airport,Saint Cloud,United States,America/Menominee,45.546556,-94.059889,,
BRU,Brussels Natl,Brussels,Belgium,Europe/Brussels,50.901389,4.484444,,
BRW,Wiley Post Will Rogers Mem,Barrow,United States,America/Nome,71.285446,-156.766003,,
BRV,Bremerhaven,Bremerhaven,Germany,Europe/Berlin,53.507081,8.572878,,
STG,St. George Airport,St. George,United States,America/Nome,56.577222,-169.663611,,
STI,Cibao Intl,Santiago,Dominican Republic,America/Santo_Domingo,19.406092,-70.604689,,
STL,Lambert St Louis Intl,St. Louis,United States,America/Chicago,38.748697,-90.370028,,
STN,Stansted,London,United Kingdom,Europe/London,51.885,0.235,,
STM,Santarem,Santarem,Brazil,America/Manaus,-2.422431,-54.792789,,
KDH,Kandahar,Kandahar,Afghanistan,Asia/Kabul,31.505756,65.847822,,
BSB,Presidente Juscelino Kubitschek,Brasilia,Brazil,America/Campo_Grande,-15.8711,-47.918625,,
STR,Stuttgart,Stuttgart,Germany,Europe/Berlin,48.689878,9.221964,,
BSA,Bosaso Airport,Bosaso,Somalia,Africa/Mogadishu,11.2753,49.1494,,
KDI,Wolter Monginsidi,Kendari,Indonesia,Asia/Makassar,-4.081608,122.418231,,
BSD,Baoshan Airport,Baoshan,China,Asia/Chongqing,25.053333,99.168333,,
KDL,Kardla,Kardla,Estonia,Europe/Tallinn,58.990756,22.830733,,
STT,Cyril E King,St. Thomas,Virgin Islands,America/St_Thomas,18.337306,-64.973361,,
BSC,Jose Celestino Mutis,Bahia Solano,Colombia,America/Bogota,6.202917,-77.394675,,
STV,Surat,Surat,India,Asia/Kolkata,21.114061,72.741792,,
KDM,Kaadedhdhoo,Kaadedhdhoo,Maldives,Indian/Maldives,0.4880555,72.995556,,
STX,Henry E Rohlsen,St. Croix Island,Virgin Islands,America/St_Thomas,17.701889,-64.798556,,
BSG,Bata,Bata,Equatorial Guinea,Africa/Malabo,1.905469,9.805681,,
KDO,Kadhdhoo Airport,Laamu Atoll,Maldives,Indian/Maldives,1.85917,73.5219,,
STW,Shpakovskoye,Stavropol,Russia,Europe/Moscow,45.109165,42.112778,,
BSL,EuroAirport Basel-Mulhouse-Freiburg,Basel,Switzerland,Europe/Zurich,47.59,7.529167,,
BSK,Biskra,Biskra,Algeria,Africa/Algiers,34.793289,5.738231,,
KDV,Vunisea Airport,Vunisea,Fiji,Pacific/Fiji,-19.0581,178.157,,
KDU,Skardu Airport,Skardu,Pakistan,Asia/Karachi,35.335508,75.536047,,
BSO,Basco Airport,Basco,Philippines,Asia/Manila,20.451322,121.979883,,
BSR,Basrah Intl,Basrah,Iraq,Asia/Baghdad,30.549069,47.662142,,
SUB,Juanda,Surabaya,Indonesia,Asia/Jakarta,-7.379831,112.786858,,
SUG,Surigao Airport,Sangley Point,Philippines,Asia/Manila,9.757567,125.479328,,
SUF,Lamezia Terme,Lamezia,Italy,Europe/Rome,38.905394,16.242269,,
BSX,Pathein Airport,Pathein,Burma,Asia/Rangoon,16.815233,94.779911,,
KEB,,,,America/Anchorage,0,0,,
SUJ,Satu Mare,Satu Mare,Romania,Europe/Bucharest,47.703275,22.8857,,
KEF,Keflavik International Airport,Keflavik,Iceland,Atlantic/Reykjavik,63.985,-22.605556,,
KEK,Ekwok Airport,Ekwok,United States,America/Anchorage,59.356944,-157.471111,,
KEJ,Kemerovo,Kemorovo,Russia,Asia/Novosibirsk,55.270094,86.107208,,
SUR,Summer Beaver Airport,Summer Beaver,Canada,America/Rankin_Inlet,52.7086,-88.5419,,
KEM,Kemi Tornio,Kemi,Finland,Europe/Helsinki,65.781889,24.5991,,
SUV,Nausori Intl,Nausori,Fiji,Pacific/Fiji,-18.043267,178.559228,,
BTI,Barter Island Lrrs,Barter Island,United States,America/Anchorage,70.133989,-143.581867,,
BTH,Hang Nadim,Batam,Indonesia,Asia/Pontianak,1.121028,104.118753,,
KEP,Nepalgunj Airport,Nepalgunj,Nepal,Asia/Kathmandu,28.103633,81.667006,,
BTK,Bratsk,Bratsk,Russia,Asia/Irkutsk,56.370556,101.698331,,
BTJ,Sultan Iskandarmuda,Banda Aceh,Indonesia,Asia/Pontianak,5.523522,95.420372,,
KER,Kerman,Kerman,Iran,Asia/Tehran,30.274444,56.951111,,
BTM,Bert Mooney Airport,Butte,United States,America/Boise,45.954806,-112.497472,,
BTL,,,,America/Indiana/Knox,0,0,,
KET,Kengtung,Kengtung,Burma,Asia/Rangoon,21.301611,99.635997,,
KEW,Keewaywin,Keewaywin,Canada,UTC,52.991111,-92.836389,,
SVB,Sambava,Sambava,Madagascar,Indian/Antananarivo,-14.278611,50.174721,,
SVA,Savoonga Airport,Savoonga,United States,America/Nome,63.6864,-170.493,,
BTS,M R Stefanik,Bratislava,Slovakia,Europe/Prague,48.170167,17.212667,,
SVD,E T Joshua,Kingstown,Saint Vincent and the Grenadines,America/St_Vincent,13.144306,-61.210861,,
BTR,Baton Rouge Metro Ryan Fld,Baton Rouge,United States,America/Chicago,30.533167,-91.149639,,
SVC,Grant County Airport,Silver City,United States,America/Phoenix,32.6365,-108.156,,
BTU,Bintulu,Bintulu,Malaysia,Asia/Kuching,3.12385,113.020472,,
BTT,Bettles,Bettles,United States,America/Anchorage,66.913944,-151.529056,,
BTV,Burlington Intl,Burlington,United States,America/New_York,44.471861,-73.153278,,
SVG,Sola,Stavanger,Norway,Europe/Oslo,58.876778,5.637856,,
SVJ,Svolvær Helle Airport,Svolvær,Norway,Europe/Oslo,68.2433,14.6692,,
KFA,Kiffa,Kiffa,Mauritania,Africa/Nouakchott,16.589983,-11.406208,,
SVI,Eduardo Falla Solano,San Vincente De Caguan,Colombia,America/Bogota,2.152175,-74.76635,,
SVL,Savonlinna,Savonlinna,Finland,Europe/Helsinki,61.943064,28.945136,,
SVO,Sheremetyevo,Moscow,Russia,Europe/Moscow,55.972642,37.414589,,
BUA,Buka Airport,Buka Island,Papua New Guinea,Pacific/Port_Moresby,-5.42232,154.673,,
SVQ,Sevilla,Sevilla,Spain,Africa/Ceuta,37.418,-5.893106,,
BUD,Ferihegy,Budapest,Hungary,Europe/Budapest,47.436933,19.255592,,
BUC,Burketown Airport,Burketown,Australia,Australia/Lindeman,-17.7486,139.534,,
SVS,,,,America/Anchorage,0,0,,
BUF,Buffalo Niagara Intl,Buffalo,United States,America/Detroit,42.940525,-78.732167,,
SVU,Savusavu Airport,Savusavu,Fiji,Pacific/Fiji,-16.8028,179.341,,
KFP,False Pass Airport,False Pass,United States,America/Anchorage,54.8475,-163.410278,,
SVX,Koltsovo,Yekaterinburg,Russia,Asia/Yekaterinburg,56.743108,60.802728,,
SVZ,San Antonio Del Tachira,San Antonio,Venezuela,America/Caracas,7.840831,-72.439742,,
BUL,,,,Pacific/Port_Moresby,0,0,,
BUN,Gerardo Tobar Lopez,Buenaventura,Colombia,America/Bogota,3.819628,-76.989767,,
SWA,Wai Sha Airport,Shantou,China,Asia/Shanghai,23.4,116.683,,
BUO,Burao Airport,Burao,Somalia,Africa/Mogadishu,9.517,45.567,,
BUR,Bob Hope,Burbank,United States,America/Los_Angeles,34.200667,-118.358667,,
BUQ,J M Nkomo Intl,Bulawayo,Zimbabwe,Africa/Harare,-20.017431,28.617869,,
BUS,Batumi,Batumi,Georgia,Asia/Tbilisi,41.610278,41.599694,,
SWF,Stewart Intl,Newburgh,United States,America/New_York,41.504094,-74.104839,,
BUX,Bunia,Bunia,Congo (Kinshasa),Africa/Kinshasa,1.565719,30.220833,,
KGA,Kananga,Kananga,Congo (Kinshasa),Africa/Lubumbashi,-5.900055,22.469166,,
KGC,Kingscote Airport,Kingscote,Australia,Australia/Adelaide,-35.713889,137.521389,,
BUZ,Bushehr,Bushehr,Iran,Asia/Tehran,28.944811,50.834637,,
SWK,,,,Europe/Rome,0,0,,
SWJ,Southwest Bay Airport,Malekula Island,Vanuatu,Pacific/Efate,-16.495,167.438,,
KGD,Khrabrovo,Kaliningrad,Russia,Europe/Kaliningrad,54.89005,20.592633,,
KGF,Sary-Arka,Karaganda,Kazakhstan,Asia/Almaty,49.670833,73.334444,,
BVA,Tille,Beauvais,France,Europe/Paris,49.454444,2.112778,,
KGI,Kalgoorlie Boulder,Kalgoorlie,Australia,Australia/Perth,-30.789444,121.461667,,
KGK,Koliganek Airport,Koliganek,United States,America/Anchorage,59.726667,-157.259444,,
BVC,Rabil,Boa Vista,Cape Verde,Atlantic/Cape_Verde,16.136531,-22.888897,,
BVB,Boa Vista,Boa Vista,Brazil,America/Boa_Vista,2.846311,-60.690069,,
BVE,La Roche,Brive,France,Europe/Paris,45.150833,1.469167,,
KGL,Kigali Intl,Kigali,Rwanda,Africa/Kigali,-1.968628,30.13945,,
BVG,Berlevag,Berlevag,Norway,Europe/Oslo,70.866667,29,,
BVI,Birdsville Airport,Birdsville,Australia,Australia/Broken_Hill,-25.8975,139.348,,
KGP,Kogalym International,Kogalym,Russia,Asia/Yekaterinburg,62.18,74.53,,
KGS,Kos,Kos,Greece,Europe/Athens,36.793335,27.091667,,
SXB,Entzheim,Strasbourg,France,Europe/Paris,48.538319,7.628233,,
KGX,Grayling Airport,Grayling,United States,America/Nome,62.894444,-160.065,,
SXF,Schonefeld,Berlin,Germany,Europe/Berlin,52.380001,13.5225,,
SXL,Sligo,Sligo,Ireland,Europe/Dublin,54.280214,-8.599206,,
SXM,Princess Juliana Intl,Philipsburg,Netherlands Antilles,America/Curacao,18.040953,-63.1089,,
KHH,Kaohsiung Intl,Kaohsiung,Taiwan,Asia/Taipei,22.577094,120.350006,,
SXP,Sheldon Point Airport,Nunam Iqua,United States,America/Nome,62.520556,-164.847778,,
KHG,Kashi,Kashi,China,Asia/Kashgar,39.542922,76.019956,,
SXR,Srinagar,Srinagar,India,Asia/Kolkata,33.987139,74.77425,,
BWA,Bhairahawa,Bhairawa,Nepal,Asia/Kathmandu,27.505703,83.41625,,
KHI,Jinnah Intl,Karachi,Pakistan,Asia/Karachi,24.906547,67.160797,,
KHN,Changbei Intl,Nanchang,China,Asia/Shanghai,28.865,115.9,,
BWE,Braunschweig Wolfsburg,Braunschweig,Germany,Europe/Berlin,52.319167,10.556111,,
KHM,Khamti,Khamti,Burma,Asia/Rangoon,25.988333,95.674444,,
BWI,Baltimore Washington Intl,Baltimore,United States,America/New_York,39.175361,-76.668333,,
BWK,Brac,Brac,Croatia,Europe/Belgrade,43.285719,16.679719,,
KHS,Khasab,Khasab,Oman,Asia/Muscat,26.170986,56.240569,,
BWN,Brunei Intl,Bandar Seri Begawan,Brunei,Asia/Brunei,4.9442,114.928353,,
KHV,Novy,Khabarovsk,Russia,Asia/Vladivostok,48.528044,135.188361,,
KHZ,,,,Pacific/Tahiti,0,0,,
SYB,Seal Bay Seaplane Base,Seal Bay,United States,America/Anchorage,58.166667,-152.5,,
BWT,Wynyard Airport,Burnie,Australia,Australia/Adelaide,-40.9989,145.731,,
SYD,Sydney Intl,Sydney,Australia,Australia/Sydney,-33.946111,151.177222,,
SYJ,,,,UTC,0,0,,
SYM,Simao Airport,Simao,China,Asia/Chongqing,22.7933,100.959,,
KID,Kristianstad,Kristianstad,Sweden,Europe/Stockholm,55.921686,14.085536,,
SYO,Shonai Airport,Shonai,Japan,Asia/Tokyo,38.812222,139.787222,,
KIF,Kingfisher Lake Airport,Kingfisher Lake,Canada,America/Rainy_River,53.0125,-89.8553,,
KIH,Kish Island,Kish Island,Iran,Asia/Tehran,26.526156,53.980211,,
KIK,Kirkuk AB,Kirkuk,Iraq,Asia/Baghdad,35.17,44.3483,,
KIJ,Niigata,Niigata,Japan,Asia/Tokyo,37.5711,139.0646,,
SYR,Syracuse Hancock Intl,Syracuse,United States,America/New_York,43.111187,-76.106311,,
SYU,Warraber Island Airport,Sue Islet,Australia,Australia/Lindeman,-10.2083,142.825,,
KIN,Norman Manley Intl,Kingston,Jamaica,America/Jamaica,17.935667,-76.7875,,
SYY,Stornoway,Stornoway,United Kingdom,Europe/London,58.215556,-6.331111,,
SYX,Phoenix International,Sanya,China,Asia/Shanghai,18.302897,109.412272,,
KIS,Kisumu,Kisumu,Kenya,Africa/Nairobi,-0.086139,34.728892,,
KIR,Kerry,Kerry,Ireland,Europe/Dublin,52.180878,-9.523783,,
SYZ,Shiraz Shahid Dastghaib Intl,Shiraz,Iran,Asia/Tehran,29.539242,52.589786,,
KIV,Chisinau Intl,Chisinau,Moldova,Europe/Chisinau,46.927744,28.930978,,
SZB,Subang-Sultan Abdul Aziz Shah Intl,Kuala Lumpur,Malaysia,Asia/Kuala_Lumpur,3.130583,101.549333,,
KIX,Kansai,Osaka,Japan,Asia/Tokyo,34.4347222,135.244167,,
SZA,Soyo,Soyo,Angola,Africa/Luanda,-6.141086,12.371764,,
BXR,Bam Airport,Bam,Iran,Asia/Tehran,29.084169,58.450042,,
BXU,Butuan,Butuan,Philippines,Asia/Manila,8.951322,125.477972,,
SZF,Samsun-Çarşamba Airport,Samsun,Turkey,Europe/Istanbul,41.2545,36.5671,,
SZG,Salzburg,Salzburg,Austria,Europe/Vienna,47.793304,13.004333,,
KJA,Emelyanovo,Krasnoyarsk,Russia,Asia/Krasnoyarsk,56.18,92.475,,
SZV,,,,Asia/Shanghai,0,0,,
SZX,Baoan Intl,Shenzhen,China,Asia/Shanghai,22.639258,113.810664,,
SZZ,Goleniow,Szczecin,Poland,Europe/Warsaw,53.584731,14.902206,,
BYN,Bayankhongor Airport,Bayankhongor,Mongolia,Asia/Ulaanbaatar,46.1633,100.704,,
BYM,Carlos Manuel De Cespedes,Bayamo,Cuba,America/Havana,20.396331,-76.621494,,
KKA,Koyuk Alfred Adams Airport,Koyuk,United States,America/Nome,64.939444,-161.154167,,
KKC,Khon Kaen,Khon Kaen,Thailand,Asia/Bangkok,16.466628,102.783661,,
KKB,Kitoi Bay Seaplane Base,Kitoi Bay,United States,America/Anchorage,58.190833,-152.370556,,
KKD,Kokoda Airport,Kokoda,Papua New Guinea,Pacific/Port_Moresby,-8.88468,147.731,,
KKI,,,,America/Nome,0,0,,
KKH,Kongiganak Airport,Kongiganak,United States,America/Nome,59.960833,-162.881111,,
KKJ,New Kitakyushu,Kitakyushu,Japan,Asia/Tokyo,33.845942,131.034689,,
BZE,Philip S W Goldson Intl,Belize City,Belize,America/Belize,17.539144,-88.308203,,
BZG,Bydgoszcz Ignacy Jan Paderewski Airport,Bydgoszcz,Poland,Europe/Warsaw,53.0968,17.9777,,
KKN,Hoybuktmoen,Kirkenes,Norway,Europe/Oslo,69.725781,29.891295,,
BZK,Bryansk,Bryansk,Russia,Europe/Moscow,53.214194,34.176447,,
KKR,Kaukura,Kaukura Atoll,French Polynesia,Pacific/Tahiti,-15.663333,-146.884769,,
KKU,,,,America/Anchorage,0,0,,
BZL,Barisal Airport,Barisal,Bangladesh,Asia/Dhaka,22.801,90.3012,,
BZO,Bolzano,Bolzano,Italy,Europe/Rome,46.460194,11.326383,,
BZN,Gallatin Field,Bozeman,United States,America/Boise,45.777643,-111.160151,,
BZR,Vias,Beziers,France,Europe/Paris,43.323522,3.353903,,
BZV,Maya Maya,Brazzaville,Congo (Brazzaville),Africa/Brazzaville,-4.2517,15.253031,,
BZZ,Brize Norton,Brize Norton,United Kingdom,Europe/London,51.749964,-1.583617,,
KLH,Kolhapur,Kolhapur,India,Asia/Kolkata,16.664658,74.289353,,
KLG,Kalskag Airport,Kalskag,United States,America/Nome,61.5363,-160.341,,
KLL,Levelock Airport,Levelock,United States,America/Anchorage,59.128056,-156.858611,,
KLN,Larsen Bay Airport,Larsen Bay,United States,America/Anchorage,57.535,-153.976667,,
KLO,Kalibo,Kalibo,Philippines,Asia/Manila,11.679431,122.376294,,
KLR,Kalmar,Kalkmar,Sweden,Europe/Stockholm,56.685531,16.287578,,
KLV,Karlovy Vary,Karlovy Vary,Czech Republic,Europe/Prague,50.202978,12.914983,,
KLU,Woerthersee International Airport,Klagenfurt,Austria,Europe/Vienna,46.642514,14.337739,,
KLW,Klawock Airport,Klawock,United States,America/Juneau,55.579167,-133.076111,,
KMA,Kerema Airport,Kerema,Papua New Guinea,Pacific/Port_Moresby,-7.96361,145.771,,
KMC,,,,Asia/Riyadh,0,0,,
KME,Kamembe,Kamembe,Rwanda,Africa/Kigali,-2.462242,28.90795,,
KMG,Wujiaba,Kunming,China,Asia/Chongqing,24.992364,102.743536,,
KMI,Miyazaki,Miyazaki,Japan,Asia/Tokyo,31.877222,131.448611,,
KMJ,Kumamoto,Kumamoto,Japan,Asia/Tokyo,32.837319,130.85505,,
KMO,Manokotak Airport,Manokotak,United States,America/Anchorage,58.990278,-159.05,,
KMQ,Komatsu,Kanazawa,Japan,Asia/Tokyo,36.394611,136.406544,,
KMS,Kumasi Airport,Kumasi,Ghana,UTC,6.71456,-1.59082,,
KMV,Kalay Airport,Kalemyo,Myanmar,Asia/Rangoon,23.188811,94.051094,,
KMY,Moser Bay Seaplane Base,Moser Bay,United States,America/Anchorage,57.025556,-154.145833,,
KND,Kindu,Kindu,Congo (Kinshasa),Africa/Lubumbashi,-2.919178,25.915361,,
KNH,Shang Yi,Kinmen,Taiwan,Asia/Taipei,24.427892,118.359197,,
KNG,Kaimana,Kaimana,Indonesia,Asia/Makassar,-3.644517,133.695553,,
KNK,,,,America/Anchorage,0,0,,
KNO,Kuala Namu International Airport,Medan,Indonesia,Asia/Jakarta,3.634555,98.872419,,
KNQ,Kone,Kone,New Caledonia,Pacific/Noumea,-21.053428,164.837806,,
KNS,King Island Airport,King Island,Australia,Australia/Currie,-39.8775,143.878,,
KNU,Kanpur,Kanpur,India,Asia/Kolkata,26.441444,80.364864,,
KNX,Kununurra,Kununurra,Australia,Australia/Perth,-15.778056,128.7075,,
KNW,New Stuyahok Airport,New Stuyahok,United States,America/Anchorage,59.4499,-157.328,,
KOA,Kona Intl At Keahole,Kona,United States,Pacific/Honolulu,19.738767,-156.045631,,
KOC,Koumac,Koumac,New Caledonia,Pacific/Noumea,-20.546314,164.255625,,
KOE,El Tari,Kupang,Indonesia,Asia/Makassar,-10.171583,123.671136,,
KOI,Kirkwall,Kirkwall,United Kingdom,Europe/London,58.957778,-2.905,,
KOK,Kruunupyy,Kruunupyy,Finland,Europe/Helsinki,63.721172,23.143131,,
KOJ,Kagoshima,Kagoshima,Japan,Asia/Tokyo,31.803397,130.719408,,
KOP,Nakhon Phanom,Nakhon Phanom,Thailand,Asia/Bangkok,17.383794,104.643022,,
KOU,Koulamoutou Airport,Koulamoutou,Gabon,Africa/Libreville,-1.18461,12.4413,,
KOT,Kotlik Airport,Kotlik,United States,America/Nome,63.030556,-163.532778,,
KOW,Ganzhou Airport,Ganzhou,China,Asia/Shanghai,25.8258,114.912,,
KOY,Olga Bay Seaplane Base,Olga Bay,United States,America/Anchorage,57.161389,-154.229722,,
TAB,Crown Point,Scarborough,Trinidad and Tobago,America/Port_of_Spain,11.149658,-60.832194,,
KOZ,Ouzinkie Airport,Ouzinkie,United States,America/Anchorage,57.922876,-152.500511,,
TAC,Daniel Z Romualdez,Tacloban,Philippines,Asia/Manila,11.227628,125.027758,,
TAE,Daegu Ab,Taegu,South Korea,Asia/Seoul,35.894108,128.658856,,
TAH,Tanna island,Tanna,Vanuatu,Pacific/Efate,-19.455198,169.22394,,
TAG,Tagbilaran,Tagbilaran,Philippines,Asia/Manila,9.66408056,123.853247,,
KPB,Point Baker Seaplane Base,Point Baker,United States,America/Juneau,56.351944,-133.6225,,
TAI,Taiz Intl,Taiz,Yemen,Asia/Aden,13.685964,44.139056,,
TAL,Tanana Airport,Tanana,United States,America/Anchorage,65.179556,-152.075833,,
KPC,Port Clarence Coast Guard Station,Port Clarence,United States,America/Nome,65.2537,-166.859,,
TAK,Takamatsu,Takamatsu,Japan,Asia/Tokyo,34.214167,134.015556,,
TAM,General Francisco Javier Mina Intl,Tampico,Mexico,America/Mexico_City,22.29645,-97.865931,,
TAP,Tapachula Intl,Tapachula,Mexico,America/Merida,14.794339,-92.370025,,
TAO,Liuting,Qingdao,China,Asia/Shanghai,36.266108,120.374436,,
TAT,Tatry,Poprad,Slovakia,Europe/Prague,49.073594,20.241142,,
TAS,Yuzhny,Tashkent,Uzbekistan,Asia/Tashkent,41.257861,69.281186,,
KPN,Kipnuk Airport,Kipnuk,United States,America/Nome,59.933056,-164.030556,,
KPO,Pohang,Pohang,South Korea,Asia/Seoul,35.987858,129.420486,,
KPR,Port Williams Seaplane Base,Port Williams,United States,America/Anchorage,58.49,-152.582222,,
KPV,Perryville Airport,Perryville,United States,America/Anchorage,55.906667,-159.160833,,
KPY,Port Bailey Seaplane Base,Port Bailey,United States,America/Anchorage,57.93,-153.040556,,
TBB,Dong Tac,Tuy Hoa,Vietnam,Asia/Ho_Chi_Minh,13.04955,109.333706,,
TBG,Tabubil Airport,Tabubil,Papua New Guinea,Pacific/Port_Moresby,-5.27861,141.226,,
KQA,Akutan Seaplane Base,Akutan,United States,America/Nome,54.1325,-165.785,,
TBI,,,,America/Nassau,0,0,,
TBH,Romblon Airport,Romblon,Philippines,Asia/Manila,12.311,122.085,,
TBJ,7 Novembre,Tabarka,Tunisia,Africa/Tunis,36.978333,8.876389,,
TBO,Tabora Airport,Tabora,Tanzania,Africa/Dar_es_Salaam,-5.07639,32.8333,,
TBN,Waynesville Rgnl Arpt At Forney Fld,Fort Leonardwood,United States,America/Chicago,37.741631,-92.140736,,
TBP,Pedro Canga,Tumbes,Peru,America/Lima,-3.552528,-80.381356,,
TBS,Tbilisi,Tbilisi,Georgia,Asia/Tbilisi,41.669167,44.954722,,
CAB,Cabinda,Cabinda,Angola,Africa/Luanda,-5.596992,12.188353,,
CAE,Columbia Metropolitan,Colombia,United States,America/Kentucky/Monticello,33.938833,-81.119528,,
TBU,Fua Amotu Intl,Tongatapu,Tonga,Pacific/Tongatapu,-21.241214,-175.149644,,
CAG,Elmas,Cagliari,Italy,Europe/Rome,39.251469,9.054283,,
TBW,Tambow,Tambow,Russia,Europe/Moscow,52.81,41.48,,
CAI,Cairo Intl,Cairo,Egypt,Africa/Cairo,30.121944,31.405556,,
CAH,Ca Mau,Ca Mau,Vietnam,Asia/Ho_Chi_Minh,9.188049,105.174721,,
CAK,Akron Canton Regional Airport,Akron,United States,America/Detroit,40.9160833,-81.4421944,,
TBZ,Tabriz Intl,Tabriz,Iran,Asia/Tehran,38.133889,46.235,,
CAL,Campbeltown Airport,Campbeltown,United Kingdom,Europe/London,55.4372,-5.68639,,
CAN,Baiyun Intl,Guangzhou,China,Asia/Shanghai,23.392436,113.298786,,
TCB,Treasure Cay,Treasure Cay,Bahamas,America/Nassau,26.745336,-77.391269,,
CAP,Cap Haitien Intl,Cap Haitien,Haiti,America/Port-au-Prince,19.732989,-72.194739,,
TCE,Cataloi,Tulcea,Romania,Europe/Bucharest,45.062486,28.714311,,
TCH,Tchibanga Airport,Tchibanga,Gabon,Africa/Libreville,-2.85,11.017,,
CAY,Rochambeau,Cayenne,French Guiana,America/Cayenne,4.819808,-52.360447,,
CAZ,Cobar Airport,Cobar,Australia,Australia/Broken_Hill,-31.5383,145.794,,
KRF,Kramfors Solleftea,Kramfors,Sweden,Europe/Stockholm,63.048597,17.768856,,
TCP,Taba Intl,Taba,Egypt,Africa/Cairo,29.587778,34.778056,,
TCO,La Florida,Tumaco,Colombia,America/Bogota,1.814417,-78.749228,,
CBB,Jorge Wilsterman,Cochabamba,Bolivia,America/La_Paz,-17.421058,-66.177114,,
KRI,Kikori Airport,Kikori,Papua New Guinea,Pacific/Port_Moresby,-7.42438,144.25,,
TCQ,Coronel Carlos Ciriani Santa Rosa Intl,Tacna,Peru,America/Lima,-18.053333,-70.275833,,
KRL,Korla Airport,Korla,China,Asia/Urumqi,41.6978,86.1289,,
TCT,Takotna Airport,Takotna,United States,America/Anchorage,62.971944,-156.082778,,
KRK,Balice,Krakow,Poland,Europe/Warsaw,50.077731,19.784836,,
KRN,Kiruna,Kiruna,Sweden,Europe/Stockholm,67.821986,20.336764,,
CBH,Béchar Boudghene Ben Ali Lotfi Airport,Béchar,Algeria,Africa/Algiers,31.6457,-2.26986,,
KRP,Karup,Karup,Denmark,Europe/Copenhagen,56.297458,9.124628,,
CBG,Cambridge,Cambridge,United Kingdom,Europe/London,52.205,0.175,,
KRR,Pashkovskiy,Krasnodar,Russia,Europe/Moscow,45.034689,39.170539,,
KRT,Khartoum,Khartoum,Sudan,Africa/Khartoum,15.589497,32.553161,,
KRS,Kjevik,Kristiansand,Norway,Europe/Oslo,58.204214,8.085369,,
CBO,Cotabato,Cotabato,Philippines,Asia/Manila,7.165242,124.209619,,
CBR,Canberra,Canberra,Australia,Australia/Broken_Hill,-35.306944,149.195,,
CBQ,Calabar,Calabar,Nigeria,Africa/Lagos,4.976019,8.347197,,
KRY,Karamay Airport,Karamay,China,Asia/Shanghai,45.617,84.883,,
CBT,Catumbela Airport,Catumbela,Angola,Africa/Luanda,-12.4792,13.4869,,
TDD,Tte Av Jorge Henrich Arauz,Trinidad,Bolivia,America/La_Paz,-14.818739,-64.918019,,
KSC,Kosice,Kosice,Slovakia,Europe/Prague,48.663055,21.241112,,
KSD,Karlstad Airport,Karlstad,Sweden,Europe/Stockholm,59.4447,13.3374,,
KSH,Shahid Ashrafi Esfahani,Bakhtaran,Iran,Asia/Tehran,34.345853,47.158128,,
CCC,Cayo Coco Airport,Cayo Coco,Cuba,America/Havana,22.5132,-78.511,,
KSM,St Marys Airport,St Mary's,United States,America/Nome,62.0605,-163.302,,
KSL,Kassala,Kassala,Sudan,Africa/Khartoum,15.387494,36.328842,,
KSO,Aristotelis,Kastoria,Greece,Europe/Athens,40.446294,21.282186,,
KSN,Kostanay West Airport,Kostanay,Kazakhstan,Asia/Qyzylorda,53.206944,63.550278,,
KSQ,Karshi Khanabad Airport,Khanabad,Uzbekistan,Asia/Samarkand,38.8336,65.9215,,
TDX,Trat,Trat,Thailand,Asia/Bangkok,12.274572,102.318958,,
CCK,Cocos Keeling Island Airport,Cocos Keeling Island,Cocos (Keeling) Islands,Indian/Cocos,-12.1883,96.8339,,
CCJ,Calicut,Calicut,India,Asia/Kolkata,11.136839,75.9553,,
KSU,Kvernberget,Kristiansund,Norway,Europe/Oslo,63.111781,7.824522,,
KSY,Kars Airport,Kars,Turkey,Europe/Istanbul,40.562222,43.115002,,
TEB,Teterboro,Teterboro,United States,America/New_York,40.850103,-74.060837,,
CCP,Carriel Sur Intl,Concepcion,Chile,America/Santiago,-36.77265,-73.063106,,
CCS,Simon Bolivar Intl,Caracas,Venezuela,America/Caracas,10.603117,-66.990583,,
KSZ,Kotlas Airport,Kotlas,Russia,Europe/Moscow,61.2358,46.6975,,
CCU,Netaji Subhash Chandra Bose Intl,Kolkata,India,Asia/Kolkata,22.654739,88.446722,,
TEE,Cheikh Larbi Tebessi,Tebessa,Algeria,Africa/Algiers,35.431611,8.120717,,
CCV,Craig Cove Airport,Craig Cove,Vanuatu,Pacific/Efate,-16.265,167.924,,
KTB,Thorne Bay Seaplane Base,Thorne Bay,United States,America/Juneau,55.688056,-132.536667,,
KTA,Karratha,Karratha,Australia,Australia/Perth,-20.712222,116.773333,,
CCZ,Chub Cay,Chub Cay,Bahamas,America/Nassau,25.417108,-77.88085,,
TEK,Tatitlek Airport,Tatitlek,United States,America/Anchorage,60.8725,-146.691111,,
TEN,Tongren,Tongren,China,Asia/Chongqing,27.884,109.31,,
KTE,Kerteh,Kerteh,Malaysia,Asia/Kuala_Lumpur,4.537222,103.426756,,
CDB,Cold Bay,Cold Bay,United States,America/Anchorage,55.206061,-162.725436,,
TER,Lajes,Lajes (terceira Island),Portugal,Atlantic/Azores,38.761842,-27.090797,,
TET,Tete Chingodzi,Tete,Mozambique,Africa/Maputo,-16.104817,33.640181,,
KTN,Ketchikan Intl,Ketchikan,United States,America/Juneau,55.355556,-131.71375,,
KTM,Tribhuvan Intl,Kathmandu,Nepal,Asia/Kathmandu,27.696583,85.3591,,
TEX,Telluride,Telluride,United States,America/Denver,37.953759,-107.90848,,
CDG,Charles De Gaulle,Paris,France,Europe/Paris,49.012779,2.55,,
TEZ,Tezpur Airport,Tezpur,India,Asia/Kolkata,26.7091,92.7847,,
KTT,Kittila,Kittila,Finland,Europe/Helsinki,67.701022,24.84685,,
KTS,Brevig Mission Airport,Brevig Mission,United States,America/Nome,65.331389,-166.465833,,
KTW,Pyrzowice,Katowice,Poland,Europe/Warsaw,50.474253,19.080019,,
CDR,Chadron Municipal Airport,Chadron,United States,America/Denver,42.8375,-103.095556,,
CDV,Merle K Mudhole Smith,Cordova,United States,America/Anchorage,60.491778,-145.477556,,
KUA,Kuantan,Kuantan,Malaysia,Asia/Kuala_Lumpur,3.775389,103.209056,,
TFI,Tufi Airport,Tufi,Papua New Guinea,Pacific/Port_Moresby,-9.07595,149.32,,
CDW,Caldwell Essex County Airport,Caldwell,United States,America/New_York,40.8752222,-74.2813611,,
KUD,Kudat Airport,Kudat,Malaysia,Asia/Kuching,6.9225,116.836,,
KUG,Kubin Airport,Kubin,Australia,Australia/Lindeman,-10.225,142.218,,
KUF,Kurumoch,Samara,Russia,Europe/Samara,53.5,50.15,,
TFN,Tenerife Norte,Tenerife,Spain,Atlantic/Canary,28.482653,-16.341536,,
KUH,Kushiro Airport,Kushiro,Japan,Asia/Tokyo,43.041,144.193,,
KUK,Kasigluk Airport,Kasigluk,United States,America/Nome,60.873333,-162.524444,,
TFS,Tenerife Sur,Tenerife,Spain,Atlantic/Canary,28.044475,-16.572489,,
CEB,Mactan Cebu Intl,Cebu,Philippines,Asia/Manila,10.307542,123.979439,,
CEE,Cherepovets Airport,Cherepovets,Russia,Europe/Moscow,59.2736,38.0158,,
CED,Ceduna Airport,Ceduna,Australia,Australia/Adelaide,-32.1306,133.71,,
KUL,Kuala Lumpur Intl,Kuala Lumpur,Malaysia,Asia/Kuala_Lumpur,2.745578,101.709917,,
CEG,Hawarden,Hawarden,United Kingdom,Europe/London,53.178056,-2.977778,,
KUO,Kuopio,Kuopio,Finland,Europe/Helsinki,63.00715,27.797756,,
KUN,Kaunas Intl,Kaunas,Lithuania,Europe/Vilnius,54.963919,24.084778,,
CEI,Chiang Rai Intl,Chiang Rai,Thailand,Asia/Bangkok,19.952342,99.882928,,
CEK,Balandino,Chelyabinsk,Russia,Asia/Yekaterinburg,55.305836,61.503333,,
KUS,Kulusuk,Kulusuk,Greenland,America/Godthab,65.566667,-37.1166667,,
CEM,Central Airport,Central,United States,America/Chicago,65.573889,-144.780833,,
KUU,Kullu Manali,Kulu,India,Asia/Kolkata,31.876706,77.154367,,
KUT,Kopitnari,Kutaisi,Georgia,Asia/Tbilisi,42.176653,42.482583,,
CEN,Ciudad Obregon Intl,Ciudad Obregon,Mexico,America/Hermosillo,27.392639,-109.833111,,
KUV,Kunsan Air Base,Kunsan,South Korea,Asia/Seoul,35.903756,126.615906,,
TGD,Podgorica,Podgorica,Montenegro,Europe/Belgrade,42.359392,19.251894,,
TGC,Tanjung Manis Airport,Tanjung Manis,Malaysia,Asia/Kuching,2.17784,111.202,,
TGH,Tongoa Island Airport,Tongoa Island,Vanuatu,Pacific/Efate,-16.8911,168.551,,
TGG,Sultan Mahmud,Kuala Terengganu,Malaysia,Asia/Kuala_Lumpur,5.382639,103.10336,,
KVB,Skovde,Skovde,Sweden,Europe/Stockholm,58.4564,13.972672,,
TGJ,Tiga Airport,Tiga,New Caledonia,Europe/Paris,-21.0961,167.804,,
KVA,Megas Alexandros Intl,Kavala,Greece,Europe/Athens,40.913306,24.619223,,
KVD,Ganja Airport,Ganja,Azerbaijan,Asia/Baku,40.7377,46.3176,,
CEZ,Cortez Muni,Cortez,United States,America/Denver,37.303,-108.628056,,
KVC,King Cove Airport,King Cove,United States,America/Anchorage,55.1163,-162.266,,
TGM,Transilvania Targu Mures,Tirgu Mures,Romania,Europe/Bucharest,46.467714,24.412525,,
KVG,Kavieng Airport,Kavieng,Papua New Guinea,Pacific/Port_Moresby,-2.5794,150.808,,
TGO,Tongliao Airport,Tongliao,China,Asia/Harbin,43.5567,122.2,,
TGR,Sidi Mahdi,Touggourt,Algeria,Africa/Algiers,33.067803,6.088672,,
KVL,Kivalina Airport,Kivalina,United States,America/Nome,67.7362,-164.563,,
KVK,Kirovsk-Apatity Airport,Apatity,Russia,Europe/Moscow,67.4633,33.5883,,
CFE,Auvergne,Clermont-Ferrand,France,Europe/Paris,45.786661,3.169169,,
TGU,Toncontin Intl,Tegucigalpa,Honduras,America/Tegucigalpa,14.060883,-87.217197,,
TGZ,Angel Albino Corzo,Tuxtla Gutierrez,Mexico,America/Merida,16.561822,-93.026081,,
CFK,,,,Africa/Algiers,0,0,,
CFN,Donegal Airport,Dongloe,Ireland,Europe/Dublin,55.044192,-8.341,,
THE,Senador Petronio Portella,Teresina,Brazil,America/Fortaleza,-5.059942,-42.823478,,
CFS,Coffs Harbour,Coff's Harbour,Australia,Australia/Brisbane,-30.320556,153.116389,,
CFU,Ioannis Kapodistrias Intl,Kerkyra/corfu,Greece,Europe/Athens,39.601944,19.911667,,
THF,Tempelhof,Berlin,Germany,Europe/Berlin,52.473025,13.403944,,
KWA,Bucholz Aaf,Kwajalein,Marshall Islands,Pacific/Kwajalein,8.720122,167.731661,,
KWE,Longdongbao,Guiyang,China,Asia/Chongqing,26.538522,106.800703,,
THL,Tachileik,Tachilek,Burma,Asia/Rangoon,20.483831,99.935353,,
THO,Thorshofn Airport,Thorshofn,Iceland,Atlantic/Reykjavik,66.2185,-15.3356,,
THN,Trollhattan Vanersborg,Trollhattan,Sweden,Europe/Stockholm,58.318056,12.345,,
CGA,Craig Seaplane Base,Craig,United States,America/Juneau,55.478889,-133.147778,,
KWI,Kuwait Intl,Kuwait,Kuwait,Asia/Kuwait,29.226567,47.968928,,
KWK,Kwigillingok Airport,Kwigillingok,United States,America/Nome,59.876389,-163.168611,,
THS,Sukhothai,Sukhothai,Thailand,Asia/Bangkok,17.237992,99.818183,,
CGB,Marechal Rondon,Cuiaba,Brazil,America/Cuiaba,-15.652931,-56.116719,,
KWJ,Gwangju,Kwangju,South Korea,Asia/Seoul,35.126389,126.808889,,
THR,Mehrabad Intl,Teheran,Iran,Asia/Tehran,35.689167,51.313416,,
KWM,Kowanyama Airport,Kowanyama,Australia,Australia/Lindeman,-15.4856,141.751,,
THU,Thule Air Base,Thule,Greenland,America/Thule,76.531203,-68.703161,,
CGD,Changde Airport,Changde,China,Asia/Shanghai,28.9189,111.64,,
KWL,Liangjiang,Guilin,China,Asia/Shanghai,25.218106,110.039197,,
KWN,Quinhagak Airport,Quinhagak,United States,America/Nome,59.755,-161.845278,,
CGI,Cape Girardeau Regional Airport,Cape Girardeau,United States,America/Chicago,37.2253,-89.5708,,
CGH,Congonhas,Sao Paulo,Brazil,America/Sao_Paulo,-23.626692,-46.655375,,
KWP,West Point Village Seaplane Base,West Point,United States,America/Anchorage,57.77,-153.548889,,
CGK,Soekarno Hatta Intl,Jakarta,Indonesia,Asia/Jakarta,-6.125567,106.655897,,
CGM,Camiguin Airport,Camiguin,Philippines,Asia/Manila,9.25352,124.707,,
KWT,Kwethluk Airport,Kwethluk,United States,America/Nome,60.790278,-161.443611,,
CGO,Xinzheng,Zhengzhou,China,Asia/Shanghai,34.519672,113.840889,,
CGN,Koln Bonn,Cologne,Germany,Europe/Berlin,50.865917,7.142744,,
CGQ,Changchun,Changchun,China,Asia/Harbin,43.5412,125.1201,,
CGP,Shah Amanat Intl,Chittagong,Bangladesh,Asia/Dhaka,22.249611,91.813286,,
TIA,Tirana Rinas,Tirana,Albania,Europe/Tirane,41.414742,19.720561,,
CGR,Campo Grande,Campo Grande,Brazil,America/Campo_Grande,-20.468667,-54.6725,,
KWZ,Kolwezi,Kolwezi,Congo (Kinshasa),Africa/Lubumbashi,-10.765886,25.505714,,
TIF,Taif,Taif,Saudi Arabia,Asia/Riyadh,21.483418,40.544334,,
TIH,Tikehau,Tikehau,French Polynesia,Pacific/Tahiti,-15.119617,-148.230697,,
CGY,Cagayan De Oro,Ladag,Philippines,Asia/Manila,8.415619,124.611219,,
TIJ,General Abelardo L Rodriguez Intl,Tijuana,Mexico,America/Tijuana,32.541064,-116.970158,,
KXA,,,,America/Juneau,0,0,,
KXF,Koro Island Airport,Koro Island,Fiji,Pacific/Fiji,-17.3458,179.422,,
TIN,Tindouf,Tindouf,Algeria,Africa/Algiers,27.700372,-8.167103,,
TIM,Moses Kilangin,Timika,Indonesia,Asia/Jayapura,-4.528275,136.887375,,
TIP,Tripoli Intl,Tripoli,Libya,Africa/Tripoli,32.663544,13.159011,,
TIR,Tirupati,Tirupeti,India,Asia/Kolkata,13.632492,79.543256,,
CHA,Lovell Fld,Chattanooga,United States,America/Kentucky/Monticello,35.035278,-85.203808,,
TIQ,Tinian Intl,West Tinian,Northern Mariana Islands,Pacific/Pago_Pago,14.999203,145.61935,,
CHC,Christchurch Intl,Christchurch,New Zealand,Pacific/Auckland,-43.489358,172.532225,,
KXK,Komsomolsk-on-Amur Airport,Komsomolsk-on-Amur,Russia,Asia/Vladivostok,50.4094,136.934,,
TIS,,,,Australia/Lindeman,0,0,,
TIV,Tivat,Tivat,Montenegro,Europe/Belgrade,42.404664,18.723286,,
TIZ,Tari Airport,Tari,Papua New Guinea,Pacific/Port_Moresby,-5.845,142.948,,
KXU,,,,Pacific/Tahiti,0,0,,
TJA,Capitan Oriel Lea Plaza,Tarija,Bolivia,America/La_Paz,-21.555736,-64.701325,,
CHO,Charlottesville-Albemarle,Charlottesville VA,United States,America/New_York,38.138639,-78.452861,,
CHQ,Souda,Chania,Greece,Europe/Athens,35.531747,24.149678,,
CHT,Chatham Islands,Chatham Island,New Zealand,Pacific/Chatham,-43.81,-176.457222,,
CHS,Charleston Afb Intl,Charleston,United States,America/Kentucky/Monticello,32.898647,-80.040528,,
CHU,Chuathbaluk Airport,Chuathbaluk,United States,America/Nome,61.579167,-159.215556,,
KYA,Konya,Konya,Turkey,Europe/Istanbul,37.979,32.561861,,
TJM,Roschino,Tyumen,Russia,Asia/Yekaterinburg,57.189567,65.3243,,
TJN,,,,UTC,0,0,,
CIA,Ciampino,Rome,Italy,Europe/Rome,41.799361,12.594936,,
TJQ,H As Hanandjoeddin,Tanjung Pandan,Indonesia,Asia/Pontianak,-2.745722,107.754917,,
KYK,Karuluk Airport,Karluk,United States,America/Anchorage,57.566944,-154.450278,,
CID,Cedar Rapids,Cedar Rapids,United States,America/Chicago,41.884694,-91.710806,,
CIF,Chifeng Airport,Chifeng,China,Asia/Harbin,42.235,118.908,,
CIH,Changzhi Airport,Changzhi,China,Asia/Shanghai,36.2475,113.126,,
KYP,Kyaukpyu,Kyaukpyu,Burma,Asia/Rangoon,19.426447,93.534836,,
CIK,Chalkyitsik Airport,Chalkyitsik,United States,America/Anchorage,66.645,-143.74,,
KYS,Kayes Dag Dag,Kayes,Mali,Africa/Bamako,14.481233,-11.404397,,
CIJ,Heroes Del Acre,Cobija,Bolivia,America/La_Paz,-11.040436,-68.782972,,
KYU,Koyukuk Airport,Koyukuk,United States,America/Nome,64.875833,-157.730556,,
CIP,Chipata Airport,Chipata,Zambia,Africa/Lusaka,-13.5583,32.5872,,
KYZ,Kyzyl Airport,Kyzyl,Russia,Asia/Krasnoyarsk,51.6694,94.4006,,
CIT,Shymkent,Chimkent,Kazakhstan,Asia/Qyzylorda,42.364167,69.478889,,
TKE,Tenakee Seaplane Base,Tenakee Springs,United States,America/Juneau,57.779722,-135.218333,,
TKG,Radin Inten II (Branti) Airport,Bandar Lampung-Sumatra Island,Indonesia,Asia/Jakarta,-5.242339,105.178939,,
KZB,Zachar Bay Seaplane Base,Zachar Bay,United States,America/Anchorage,57.55,-153.75,,
TKJ,,,,America/Anchorage,0,0,,
CIX,Capt Jose A Quinones Gonzales Intl,Chiclayo,Peru,America/Lima,-6.787475,-79.828097,,
TKP,Takapoto,Takapoto,French Polynesia,Pacific/Tahiti,-14.709544,-145.245814,,
CJB,Coimbatore,Coimbatore,India,Asia/Kolkata,11.030031,77.043383,,
CJA,Mayor General FAP Armando Revoredo Iglesias Airport,Cajamarca,Peru,America/Lima,-7.139183,-78.4894,,
TKQ,Kigoma Airport,Kigoma,Tanzania,Africa/Dar_es_Salaam,-4.883,29.633,,
CJC,El Loa,Calama,Chile,America/Santiago,-22.498175,-68.903575,,
TKS,Tokushima,Tokushima,Japan,Asia/Tokyo,34.132808,134.606639,,
KZN,Kazan,Kazan,Russia,Europe/Moscow,55.606186,49.278728,,
TKV,,,,UTC,0,0,,
TKU,Turku,Turku,Finland,Europe/Helsinki,60.514142,22.262808,,
TKX,Takaroa,Takaroa,French Polynesia,Pacific/Tahiti,-14.455781,-145.024542,,
KZO,Kzyl-Orda,Kzyl-Orda,Kazakhstan,Asia/Qyzylorda,44.709,65.591,,
CJJ,Cheongju International Airport,Chongju,South Korea,Asia/Seoul,36.7166,127.499119,,
CJL,Chitral Airport,Chitral,Pakistan,Asia/Karachi,35.886592,71.800578,,
TLA,Teller Airport,Teller,United States,America/Nome,65.240278,-166.339444,,
TLC,Licenciado Adolfo Lopez Mateos Intl,Toluca,Mexico,America/Mexico_City,19.337072,-99.566008,,
TLE,Toliara,Toliara,Madagascar,Indian/Antananarivo,-23.383369,43.728453,,
CJS,Abraham Gonzalez Intl,Ciudad Juarez,Mexico,America/Chihuahua,31.636133,-106.428667,,
CJU,Jeju Intl,Cheju,South Korea,Asia/Seoul,33.511306,126.493028,,
TLH,Tallahassee Rgnl,Tallahassee,United States,America/Kentucky/Monticello,30.396528,-84.350333,,
TLJ,Tatalina Lrrs,Tatalina,United States,America/Anchorage,62.894369,-155.976525,,
TLM,Zenata,Tlemcen,Algeria,Africa/Algiers,35.016667,-1.45,,
TLL,Tallinn,Tallinn-ulemiste International,Estonia,Europe/Tallinn,59.413317,24.832844,,
TLN,Le Palyvestre,Hyeres,France,Europe/Paris,43.0973,6.14603,,
TLS,Blagnac,Toulouse,France,Europe/Paris,43.629075,1.363819,,
CKB,Harrison Marion Regional Airport,Clarksburg,United States,America/Detroit,39.2966,-80.2281,,
CKD,Crooked Creek Airport,Crooked Creek,United States,America/Anchorage,61.867778,-158.135,,
TLT,Tuluksak Airport,Tuluksak,United States,America/Nome,61.096944,-160.969444,,
CKG,Jiangbei,Chongqing,China,Asia/Chongqing,29.719217,106.641678,,
TLV,Ben Gurion,Tel-aviv,Israel,Asia/Jerusalem,32.011389,34.886667,,
CKH,Chokurdakh Airport,Chokurdah,Russia,Asia/Vladivostok,70.6231,147.902,,
TMC,Tambolaka Airport,Waikabubak-Sumba Island,Indonesia,Asia/Makassar,-9.409717,119.244494,,
TME,Tame,Tame,Colombia,America/Bogota,6.451081,-71.760261,,
CKY,Conakry,Conakry,Guinea,Africa/Conakry,9.576889,-13.611961,,
TMJ,Termez Airport,Termez,Uzbekistan,Asia/Samarkand,37.286667,67.31,,
CKX,,,,America/Yakutat,0,0,,
TML,Tamale,Tamale,Ghana,UTC,9.557192,-0.863214,,
TMM,Toamasina,Toamasina,Madagascar,Indian/Antananarivo,-18.109517,49.392536,,
TMP,Tampere Pirkkala,Tampere,Finland,Europe/Helsinki,61.414147,23.604392,,
TMR,Tamanrasset,Tamanrasset,Algeria,Africa/Algiers,22.811461,5.451075,,
CLD,McClellan-Palomar Airport,Carlsbad,United States,America/Los_Angeles,33.0742,-117.1648,,
TMS,Sao Tome Intl,Sao Tome,Sao Tome and Principe,Africa/Sao_Tome,0.378175,6.712153,,
CLE,Cleveland Hopkins Intl,Cleveland,United States,America/Detroit,41.411689,-81.849794,,
TMU,Tambor Airport,Nicoya,Costa Rica,America/Costa_Rica,9.73852,-85.0138,,
TMX,Timimoun,Timimoun,Algeria,Africa/Algiers,29.237119,0.276033,,
TMW,Tamworth,Tamworth,Australia,Australia/Brisbane,-31.083889,150.846667,,
CLJ,Cluj Napoca,Cluj-napoca,Romania,Europe/Bucharest,46.785167,23.686167,,
CLM,William R Fairchild International Airport,Port Angeles,United States,America/Los_Angeles,48.1202,-123.5,,
CLP,,,,America/Anchorage,0,0,,
TNA,Jinan,Jinan,China,Asia/Shanghai,36.857214,117.215992,,
CLO,Alfonso Bonilla Aragon Intl,Cali,Colombia,America/Bogota,3.543222,-76.381583,,
TNC,Tin City LRRS Airport,Tin City,United States,America/Nome,65.563056,-167.921667,,
CLQ,Colima,Colima,Mexico,America/Mexico_City,19.277011,-103.577397,,
CLT,Charlotte Douglas Intl,Charlotte,United States,America/Kentucky/Monticello,35.214,-80.943139,,
TNG,Ibn Batouta,Tanger,Morocco,Africa/Casablanca,35.726917,-5.916889,,
TNK,Tununak Airport,Tununak,United States,America/Nome,60.575556,-165.271667,,
CLY,Saint Catherine,Calvi,France,Europe/Paris,42.530753,8.793189,,
TNJ,Kijang,Tanjung Pinang,Indonesia,Asia/Makassar,0.922683,104.532311,,
TNO,Cabo Velas Airport,Nicoya,Costa Rica,America/Costa_Rica,10.3557,-85.852892,,
TNN,Tainan,Tainan,Taiwan,Asia/Taipei,22.950361,120.205778,,
CMA,Cunnamulla Airport,Cunnamulla,Australia,Australia/Broken_Hill,-28.03,145.622,,
CMB,Bandaranaike Intl Colombo,Colombo,Sri Lanka,Asia/Colombo,7.180756,79.884117,,
TNR,Ivato,Antananarivo,Madagascar,Indian/Antananarivo,-18.79695,47.478806,,
CME,Ciudad Del Carmen Intl,Ciudad Del Carmen,Mexico,America/Merida,18.653739,-91.799017,,
CMF,Aix Les Bains,Chambery,France,Europe/Paris,45.63805,5.880225,,
CMH,Port Columbus Intl,Columbus,United States,America/Indiana/Vevay,39.997972,-82.891889,,
CMN,Mohammed V Intl,Casablanca,Morocco,Africa/Casablanca,33.367467,-7.589967,,
TOD,Pulau Tioman,Tioman,Malaysia,Asia/Kuala_Lumpur,2.818183,104.160019,,
CMU,Chimbu Airport,Kundiawa,Papua New Guinea,Pacific/Port_Moresby,-6.02429,144.971,,
TOF,Tomsk Bogashevo Airport,Tomsk,Russia,Asia/Novosibirsk,56.380278,85.208333,,
TOE,Nefta,Tozeur,Tunisia,Africa/Tunis,33.939722,8.110556,,
CMW,Ignacio Agramonte Intl,Camaguey,Cuba,America/Havana,21.420428,-77.847433,,
TOH,Torres Airstrip,Loh/Linua,Vanuatu,Pacific/Efate,-13.328,166.638,,
TOG,Togiak Airport,Togiak Village,United States,America/Anchorage,59.0528,-160.397,,
CMX,Houghton County Memorial Airport,Hancock,United States,America/Indiana/Knox,47.1684,-88.4891,,
TOL,Toledo,Toledo,United States,America/Detroit,41.586806,-83.807833,,
TOM,Tombouctou,Tombouctou,Mali,Africa/Bamako,16.730458,-3.007583,,
CND,Mihail Kogalniceanu,Constanta,Romania,Europe/Bucharest,44.362222,28.488333,,
CNC,Coconut Island Airport,Coconut Island,Australia,Australia/Lindeman,-10.05,143.07,,
TOS,Langnes,Tromso,Norway,Europe/Oslo,69.683333,18.918919,,
CNF,Tancredo Neves Intl,Belo Horizonte,Brazil,America/Bahia,-19.63375,-43.968856,,
TOU,Touho,Touho,New Caledonia,Pacific/Noumea,-20.790028,165.259486,,
CNJ,Cloncurry Airport,Cloncurry,Australia,Australia/Lindeman,-20.6686,140.504,,
TOY,Toyama,Toyama,Japan,Asia/Tokyo,36.648333,137.1875,,
CNP,Neerlerit Inaat Airport,Neerlerit Inaat,Greenland,America/Scoresbysund,70.7433,-22.6606,,
TPA,Tampa Intl,Tampa,United States,America/Kentucky/Monticello,27.975472,-82.53325,,
CNQ,Corrientes,Corrientes,Argentina,America/Argentina/Cordoba,-27.445503,-58.761864,,
TPE,Taoyuan Intl,Taipei,Taiwan,Asia/Taipei,25.077731,121.232822,,
CNS,Cairns Intl,Cairns,Australia,Australia/Lindeman,-16.885833,145.755278,,
CNX,Chiang Mai Intl,Chiang Mai,Thailand,Asia/Bangkok,18.766847,98.962644,,
CNY,Canyonlands Field,Moab,United States,America/Denver,38.755,-109.754722,,
TPJ,Taplejung,Taplejung,Nepal,Asia/Kathmandu,27.35,84.667,,
TPQ,Tepic,Tepic,Mexico,America/Mazatlan,21.419453,-104.842581,,
TPP,Cadete Guillermo Del Castillo Paredes,Tarapoto,Peru,America/Lima,-6.508742,-76.373247,,
TPS,Trapani Birgi,Trapani,Italy,Europe/Rome,37.911403,12.487961,,
COK,Cochin,Kochi,India,Asia/Kolkata,10.155556,76.391389,,
COL,Coll Airport,Coll,United Kingdom,Europe/London,56.633333,-6.557222,,
COO,Cadjehoun,Cotonou,Benin,Africa/Porto-Novo,6.357228,2.384353,,
COQ,Choibalsan Airport,Choibalsan,Mongolia,UTC,48.1357,114.646,,
COS,City Of Colorado Springs Muni,Colorado Springs,United States,America/Denver,38.805805,-104.700778,,
COR,Ambrosio L V Taravella,Cordoba,Argentina,America/Argentina/Cordoba,-31.323619,-64.207953,,
COU,Columbia Rgnl,Columbia,United States,America/Chicago,38.818094,-92.219631,,
LAD,Luanda 4 De Fevereiro,Luanda,Angola,Africa/Luanda,-8.858375,13.231178,,
LAE,Nadzab,Nadzab,Papua New Guinea,Pacific/Port_Moresby,-6.569828,146.726242,,
TQR,San Domino Island Heliport,Tremiti Islands,Italy,Europe/Rome,42.1025,15.488,,
CPD,Coober Pedy Airport,Coober Pedy,Australia,Australia/Adelaide,-29.04,134.721,,
CPC,Aviador C Campos,San Martin Des Andes,Argentina,America/Argentina/Mendoza,-40.075383,-71.137294,,
LAK,Aklavik,Aklavik,Canada,America/Inuvik,68.223333,-135.005833,,
LAN,Capital City,Lansing,United States,America/Detroit,42.7787,-84.587357,,
CPE,Ingeniero Alberto Acuna Ongay Intl,Campeche,Mexico,America/Merida,19.816794,-90.500314,,
CPH,Kastrup,Copenhagen,Denmark,Europe/Copenhagen,55.617917,12.655972,,
LAP,General Manuel Marquez De Leon Intl,La Paz,Mexico,America/Mazatlan,24.072694,-110.362475,,
LAO,Laoag Intl,Laoag,Philippines,Asia/Manila,18.178092,120.531522,,
LAR,Laramie Regional Airport,Laramie,United States,America/Denver,41.3121,-105.675,,
LAQ,La Abraq Airport,Al Bayda',Libya,Africa/Tripoli,32.788673,21.964333,,
LAS,Mc Carran Intl,Las Vegas,United States,America/Los_Angeles,36.080056,-115.15225,,
LAU,Lamu Manda,Lamu,Kenya,Africa/Nairobi,-2.252417,40.913097,,
LAX,Los Angeles Intl,Los Angeles,United States,America/Los_Angeles,33.942536,-118.408075,,
CPO,Copiapo,Copiapo,Chile,America/Santiago,-27,-70,,
TRC,Torreon Intl,Torreon,Mexico,America/Monterrey,25.568278,-103.410583,,
CPQ,Amarais Airport,Campinas,Brazil,America/Campo_Grande,-22.8592,-47.1082,,
CPT,Cape Town Intl,Cape Town,South Africa,Africa/Johannesburg,-33.964806,18.601667,,
TRE,Tiree,Tiree,United Kingdom,Europe/London,56.499167,-6.869167,,
TRD,Vaernes,Trondheim,Norway,Europe/Oslo,63.457556,10.92425,,
CPV,Presidente Joao Suassuna,Campina Grande,Brazil,America/Recife,-7.269917,-35.896364,,
TRF,Torp,Sandefjord,Norway,Europe/Oslo,59.186703,10.258628,,
CPX,Culebra Airport,Culebra Island,Puerto Rico,America/Puerto_Rico,18.3127,-65.3034,,
LBA,Leeds Bradford,Leeds,United Kingdom,Europe/London,53.865897,-1.660569,,
TRI,Tri-Cities Regional Airport,BRISTOL,United States,America/Kentucky/Monticello,36.4752222,-82.4074167,,
LBC,Lubeck Blankensee,Luebeck,Germany,Europe/Berlin,53.805367,10.719222,,
TRK,Juwata,Taraken,Indonesia,Asia/Makassar,3.326694,117.565569,,
LBB,Lubbock Preston Smith Intl,Lubbock,United States,America/North_Dakota/Center,33.663639,-101.822778,,
LBD,Khudzhand Airport,Khudzhand,Tajikistan,Asia/Dushanbe,40.2154,69.6947,,
TRO,Taree Airport,Taree,Australia,Australia/Sydney,-31.8886,152.514,,
LBG,Le Bourget,Paris,France,Europe/Paris,48.969444,2.441389,,
LBF,North Platte Regional Airport Lee Bird Field,North Platte,United States,America/North_Dakota/Center,41.1262,-100.684,,
TRN,Torino,Torino,Italy,Europe/Rome,45.200761,7.649631,,
TRS,Ronchi Dei Legionari,Ronchi De Legionari,Italy,Europe/Rome,45.8275,13.472222,,
TRU,Capitan Carlos Martinez De Pinillos,Trujillo,Peru,America/Lima,-8.081411,-79.108761,,
CQD,Shahre Kord Airport,Shahre Kord,Iran,Asia/Tehran,32.2972,50.8422,,
LBL,Liberal Muni,Liberal,United States,America/North_Dakota/Center,37.044222,-100.95986,,
TRW,Bonriki Intl,Tarawa,Kiribati,Pacific/Tarawa,1.381636,173.147036,,
TRV,Thiruvananthapuram Intl,Trivandrum,India,Asia/Kolkata,8.482122,76.920114,,
LBP,Long Banga Airport,Long Banga,Malaysia,Asia/Kuching,3.18495,115.454,,
LBS,Labasa Airport,Lambasa,Fiji,Pacific/Fiji,-16.466749,179.33986,,
TRZ,Trichy,Tiruchirappalli,India,Asia/Kolkata,10.765364,78.709722,,
LBU,Labuan,Labuan,Malaysia,Asia/Kuching,5.300683,115.250181,,
LBV,Leon M Ba,Libreville,Gabon,Africa/Libreville,0.4586,9.412283,,
TSA,Sungshan,Taipei,Taiwan,Asia/Taipei,25.069722,121.5525,,
TSF,Treviso,Treviso,Italy,Europe/Rome,45.6484,12.194422,,
TSE,Astana Intl,Tselinograd,Kazakhstan,Asia/Qyzylorda,51.022222,71.466944,,
LCA,Larnaca,Larnaca,Cyprus,Asia/Nicosia,34.875117,33.62485,,
TSL,Tamuin,Tamuin,Mexico,America/Mexico_City,22.038292,-98.806503,,
TSN,Binhai,Tianjin,China,Asia/Shanghai,39.124353,117.346183,,
LCE,Goloson Intl,La Ceiba,Honduras,America/Tegucigalpa,15.742481,-86.853036,,
LCG,A Coruna,La Coruna,Spain,Europe/Madrid,43.302061,-8.377256,,
LCJ,Łódź Władysław Reymont Airport,Lodz,Poland,Europe/Warsaw,51.721881,19.398133,,
TSR,Traian Vuia,Timisoara,Romania,Europe/Bucharest,45.809861,21.337861,,
CRA,Craiova,Craiova,Romania,Europe/Bucharest,44.318139,23.888611,,
CRD,Comodoro Rivadavia,Comodoro Rivadavia,Argentina,America/Argentina/Rio_Gallegos,-45.785347,-67.465508,,
TST,Trang,Trang,Thailand,Asia/Bangkok,7.508744,99.616578,,
LCK,Rickenbacker Intl,Columbus,United States,America/Indiana/Vevay,39.813786,-82.927822,,
TSS,East 34th Street Heliport,New York,United States,America/New_York,40.7425,-73.971944,,
TSV,Townsville,Townsville,Australia,Australia/Lindeman,-19.2525,146.765278,,
LCR,La Chorrera Airport,La Chorrera,Colombia,America/Bogota,-0.733333,-73.016667,,
CRI,Colonel Hill Airport,Colonel Hill,Bahamas,America/Nassau,22.745561,-74.182353,,
CRL,Brussels South,Charleroi,Belgium,Europe/Brussels,50.459197,4.453817,,
CRK,Diosdado Macapagal International,Angeles City,Philippines,Asia/Manila,15.185833,120.560278,,
CRM,Catarman National Airport,Catarman,Philippines,Asia/Manila,12.502417,124.635778,,
CRP,Corpus Christi Intl,Corpus Christi,United States,America/Chicago,27.770361,-97.501222,,
TTA,Plage Blanche,Tan Tan,Morocco,Africa/Casablanca,28.448194,-11.161347,,
LCY,City,London,United Kingdom,Europe/London,51.505278,0.055278,,
TTE,Sultan Babullah,Ternate,Indonesia,Asia/Jayapura,0.831414,127.381486,,
CRW,Yeager,Charleston,United States,America/Indiana/Vevay,38.373147,-81.593189,,
LDB,Londrina,Londrina,Brazil,America/Campo_Grande,-23.333625,-51.130072,,
TTJ,Tottori,Tottori,Japan,Asia/Tokyo,35.530069,134.166553,,
LDE,Lourdes,Tarbes,France,Europe/Paris,43.178675,-0.006439,,
LDG,Leshukonskoye Airport,Arkhangelsk,Russia,Europe/Moscow,64.895833,45.722778,,
CSA,Colonsay Airport,Colonsay,United Kingdom,Europe/London,56.0575,-6.243056,,
TTQ,Aerotortuguero Airport,Roxana,Costa Rica,America/Costa_Rica,10.569,-83.5148,,
TTT,Fengnin,Fengnin,Taiwan,Asia/Taipei,22.754986,121.101681,,
LDN,Lamidanda,Lamidanda,Nepal,UTC,27.253117,86.670044,,
CSH,Solovki Airport,Solovetsky Islands,Russia,Europe/Moscow,65.03,35.7333,,
CSK,Cap Skiring,Cap Skiring,Senegal,Africa/Dakar,12.4102,-16.746125,,
LDU,Lahad Datu,Lahad Datu,Malaysia,Asia/Kuching,5.032247,118.324036,,
LDY,City of Derry,Londonderry,United Kingdom,Europe/London,55.042778,-7.161111,,
TUB,Tubuai,Tubuai,French Polynesia,Pacific/Tahiti,-23.365353,-149.524072,,
TUA,Teniente Coronel Luis A Mantilla,Tulcan,Ecuador,America/Guayaquil,0.809506,-77.708056,,
TUD,Tambacounda,Tambacounda,Senegal,Africa/Dakar,13.736817,-13.653122,,
TUC,Teniente Benjamin Matienzo,Tucuman,Argentina,America/Argentina/Tucuman,-26.840861,-65.104944,,
TUG,Tuguegarao Airport,Tuguegarao,Philippines,Asia/Manila,17.638311,121.730614,,
CSY,Cheboksary Airport,Cheboksary,Russia,Europe/Moscow,56.0903,47.3473,,
LEB,Lebanon Municipal Airport,Lebanon,United States,America/New_York,43.6261,-72.3042,,
CSX,Huanghua,Changcha,China,Asia/Shanghai,28.189158,113.219633,,
LEA,Learmonth,Learmonth,Australia,Australia/Perth,-22.235556,114.088611,,
TUI,Turaif,Turaif,Saudi Arabia,Asia/Riyadh,31.692683,38.7312,,
LED,Pulkovo,St. Petersburg,Russia,Europe/Moscow,59.800292,30.262503,,
TUL,Tulsa Intl,Tulsa,United States,America/Chicago,36.198389,-95.888111,,
TUK,Turbat International Airport,Turbat,Pakistan,Asia/Karachi,25.986369,63.030167,,
TUN,Carthage,Tunis,Tunisia,Africa/Tunis,36.851033,10.227217,,
TUP,Tupelo Regional Airport,Tupelo,United States,America/Chicago,34.2681,-88.7699,,
LEJ,Leipzig Halle,Leipzig,Germany,Europe/Berlin,51.432447,12.241633,,
CTA,Catania Fontanarossa,Catania,Italy,Europe/Rome,37.466781,15.0664,,
LEI,Almeria,Almeria,Spain,Africa/Ceuta,36.843936,-2.370097,,
CTC,Catamarca,Catamarca,Argentina,America/Argentina/Catamarca,-28.593214,-65.750925,,
TUS,Tucson Intl,Tucson,United States,America/Phoenix,32.116083,-110.941028,,
LEN,Leon Airport,Leon,Spain,Europe/Madrid,42.589,-5.655556,,
TUU,Tabuk,Tabuk,Saudi Arabia,Asia/Riyadh,28.365417,36.618889,,
CTG,Rafael Nunez,Cartagena,Colombia,America/Bogota,10.442381,-75.512961,,
LER,Leinster Airport,Leinster,Australia,Australia/Perth,-27.8433,120.703,,
CTL,Charleville,Charlieville,Australia,Australia/Brisbane,-26.413334,146.2625,,
LET,Alfredo Vasquez Cobo,Leticia,Colombia,America/Bogota,-4.193549,-69.943163,,
LEV,Levuka Airfield,Levuka,Fiji,Pacific/Fiji,-17.68333,178.83333,,
CTM,Chetumal Intl,Chetumal,Mexico,America/Merida,18.504667,-88.326847,,
LEX,Blue Grass,Lexington KY,United States,America/Indiana/Vevay,38.0365,-84.605889,,
TVC,Cherry Capital Airport,Traverse City,United States,America/Detroit,44.741445,-85.582235,,
CTS,New Chitose,Sapporo,Japan,Asia/Tokyo,42.7752,141.692283,,
CTU,Shuangliu,Chengdu,China,Asia/Chongqing,30.578528,103.947086,,
CUC,Camilo Daza,Cucuta,Colombia,America/Bogota,7.927567,-72.511547,,
CUE,Mariscal Lamar,Cuenca,Ecuador,America/Guayaquil,-2.889467,-78.984397,,
LFM,,,,Asia/Tehran,0,0,,
TVU,Matei Airport,Matei,Fiji,Pacific/Fiji,-16.6906,-179.877,,
CUF,Levaldigi,Cuneo,Italy,Europe/Rome,44.547019,7.623217,,
TVY,Dawei Airport,Dawei,Burma,Asia/Rangoon,14.103886,98.203636,,
CUK,Caye Caulker Airport,Caye Caulker,Belize,America/Belize,17.7347,-88.0325,,
LFR,La Fria,La Fria,Venezuela,America/Caracas,8.239167,-72.271028,,
CUM,Antonio Jose De Sucre,Cumana,Venezuela,America/Caracas,10.450333,-64.130472,,
CUL,Culiacan Intl,Culiacan,Mexico,America/Mazatlan,24.764547,-107.474717,,
LFT,Lafayette Rgnl,Lafayette,United States,America/Chicago,30.205278,-91.987611,,
LFW,Gnassingbe Eyadema Intl,Lome,Togo,Africa/Lome,6.165611,1.254511,,
CUN,Cancun Intl,Cancun,Mexico,America/Cancun,21.036528,-86.877083,,
TWB,Toowoomba,Toowoomba,Australia,Australia/Brisbane,-27.542778,151.916389,,
CUP,General Jose Francisco Bermudez,Carupano,Venezuela,America/Caracas,10.660014,-63.261681,,
TWA,Twin Hills Airport,Twin Hills,United States,America/Anchorage,59.074444,-160.275,,
CUR,Hato,Willemstad,Netherlands Antilles,America/Curacao,12.188853,-68.959803,,
CUU,General R Fierro Villalobos Intl,Chihuahua,Mexico,America/Chihuahua,28.702875,-105.964567,,
LGB,Long Beach,Long Beach,United States,America/Los_Angeles,33.817722,-118.151611,,
LGA,La Guardia,New York,United States,America/New_York,40.777245,-73.872608,,
CUZ,Teniente Alejandro Velasco Astete Intl,Cuzco,Peru,America/Lima,-13.535722,-71.938781,,
LGG,Liege,Liege,Belgium,Europe/Brussels,50.637417,5.443222,,
LGI,Deadmans Cay,Dead Man's Cay,Bahamas,America/Nassau,23.179014,-75.093597,,
LGL,Long Lellang Airport,Long Datih,Malaysia,Asia/Kuching,3.421,115.154,,
TWT,,,,Asia/Manila,0,0,,
LGK,Langkawi Intl,Pulau,Malaysia,Asia/Kuala_Lumpur,6.329728,99.728667,,
TWU,Tawau,Tawau,Malaysia,Asia/Kuching,4.313369,118.121953,,
LGP,Legazpi,Legazpi,Philippines,Asia/Manila,13.157064,123.746247,,
CVG,Cincinnati Northern Kentucky Intl,Cincinnati,United States,America/Indiana/Vevay,39.048836,-84.667822,,
LGQ,Nueva Loja Airport,Lago Agrio,Ecuador,America/Guayaquil,0.093056,-76.8675,,
CVN,Clovis Muni,Clovis,United States,America/Denver,34.425139,-103.079278,,
CVM,General Pedro Jose Mendez Intl,Ciudad Victoria,Mexico,America/Monterrey,23.703336,-98.956486,,
LGW,Gatwick,London,United Kingdom,Europe/London,51.148056,-0.190278,,
CVQ,Carnarvon Airport,Carnarvon,Australia,Australia/Perth,-24.8806,113.672,,
CVT,Coventry,Coventry,United Kingdom,Europe/London,52.369722,-1.479722,,
CVU,Corvo Airport,Corvo,Portugal,Atlantic/Azores,39.6715,-31.1136,,
LHE,Allama Iqbal Intl,Lahore,Pakistan,Asia/Karachi,31.521564,74.403594,,
TXL,Tegel,Berlin,Germany,Europe/Berlin,52.559686,13.287711,,
TXN,Tunxi International Airport,Huangshan,China,Asia/Shanghai,29.7333,118.256,,
CWA,Central Wisconsin,Wassau,United States,America/Menominee,44.772726,-89.646635,,
CWC,Chernivtsi International Airport,Chernovtsk,Ukraine,Europe/Uzhgorod,48.259322,25.980831,,
CWB,Afonso Pena,Curitiba,Brazil,America/Campo_Grande,-25.528475,-49.175775,,
LHR,Heathrow,London,United Kingdom,Europe/London,51.4775,-0.461389,,
CWL,Cardiff,Cardiff,United Kingdom,Europe/London,51.396667,-3.343333,,
LHW,Lanzhou Airport,Lanzhou,China,Asia/Chongqing,36.117,103.617,,
TYF,Torsby Airport,Torsby,Sweden,Europe/Stockholm,60.157622,12.991269,,
LIF,Lifou,Lifou,New Caledonia,Europe/Paris,-20.7748,167.239864,,
TYN,Wusu,Taiyuan,China,Asia/Shanghai,37.746897,112.628428,,
LIH,Lihue,Lihue,United States,Pacific/Honolulu,21.975983,-159.338958,,
LIG,Bellegarde,Limoges,France,Europe/Paris,45.862778,1.179444,,
CXB,Coxs Bazar,Cox's Bazar,Bangladesh,Asia/Dhaka,21.452194,91.963889,,
LIL,Lesquin,Lille,France,Europe/Paris,50.561942,3.089444,,
TYS,Mc Ghee Tyson,Knoxville,United States,America/Kentucky/Monticello,35.810972,-83.994028,,
LIN,Linate,Milan,Italy,Europe/Rome,45.445103,9.276739,,
LIM,Jorge Chavez Intl,Lima,Peru,America/Lima,-12.021889,-77.114319,,
CXH,Vancouver Coal Harbour,Vancouver,Canada,America/Vancouver,49.289722,-123.115833,,
LIO,Limon Intl,Limon,Costa Rica,UTC,9.957961,-83.022006,,
CXJ,Campo Dos Bugres,Caxias Do Sul,Brazil,America/Campo_Grande,-29.197064,-51.187536,,
LIR,Daniel Oduber Quiros Intl,Liberia,Costa Rica,America/Costa_Rica,10.593289,-85.544408,,
CXI,Cassidy Intl,Kiritimati,Kiribati,Pacific/Kiritimati,1.986161,-157.349778,,
LIT,Adams Fld,Little Rock,United States,America/Chicago,34.729444,-92.224306,,
LIS,Lisboa,Lisbon,Portugal,Europe/Lisbon,38.781311,-9.135919,,
TZA,Belize City Municipal Airport,Belize,Belize,America/Belize,17.5344,-88.298,,
LIW,Loikaw Airport,Loikaw,Burma,Asia/Rangoon,19.691494,97.214825,,
LJG,Lijiang Airport,Lijiang,China,Asia/Chongqing,26.883333,100.23333,,
CYB,Gerrard Smith Intl,Cayman Barac,Cayman Islands,America/Cayman,19.686981,-79.882789,,
CYF,Chefornak Airport,Chefornak,United States,America/Nome,60.149167,-164.285556,,
CYI,Chiayi,Chiayi,Taiwan,Asia/Taipei,23.461779,120.39283,,
TZX,Trabzon,Trabzon,Turkey,Europe/Istanbul,40.995108,39.789728,,
LJU,Ljubljana,Ljubliana,Slovenia,Europe/Belgrade,46.223686,14.457611,,
CYO,Vilo Acuna Intl,Cayo Largo del Sur,Cuba,America/Havana,21.616453,-81.545989,,
CYP,Calbayog Airport,Calbayog City,Philippines,Asia/Manila,12.072706,124.545092,,
CYS,Cheyenne Rgnl Jerry Olson Fld,Cheyenne,United States,America/Denver,41.155722,-104.811839,,
CYU,Cuyo Airport,Cuyo,Philippines,Asia/Manila,10.8581,121.069,,
LKB,Lakeba Island Airport,Lakeba Island,Fiji,Pacific/Fiji,-18.1992,-178.817,,
CYX,Cherskiy Airport,Cherskiy,Russia,Asia/Anadyr,68.7406,161.338,,
CYZ,Cauayan Airport,Cauayan,Philippines,Asia/Manila,16.929861,121.753036,,
LKE,Kenmore Air Harbor Seaplane Base,Seattle,United States,America/Los_Angeles,47.629,-122.339,,
LKH,Long Akah Airport,Long Akah,Malaysia,Asia/Kuching,3.3,114.783,,
LKG,Lokichoggio Airport,Lokichoggio,Kenya,Africa/Nairobi,4.204117,34.348186,,
LKL,Banak,Lakselv,Norway,Europe/Oslo,70.068814,24.973489,,
LKN,Leknes Airport,Leknes,Norway,Europe/Oslo,68.1525,13.6094,,
CZE,Jose Leonardo Chirinos,Coro,Venezuela,America/Caracas,11.414867,-69.681656,,
CZH,Municipal,Corozal,Belize,America/Belize,18.3822,-88.4119,,
LKO,Lucknow,Lucknow,India,Asia/Kolkata,26.760594,80.889339,,
CZL,Mohamed Boudiaf Intl,Constantine,Algeria,Africa/Algiers,36.276028,6.620386,,
CZN,Chisana Airport,Chisana,United States,America/Yakutat,62.071111,-142.048333,,
CZM,Cozumel Intl,Cozumel,Mexico,America/Cancun,20.522403,-86.925644,,
CZS,Cruzeiro do Sul,Cruzeiro do Sul,Brazil,UTC,-7.599906,-72.769489,,
CZU,Las Brujas,Corozal,Colombia,America/Bogota,9.332742,-75.285594,,
CZX,Changzhou,Changzhou,China,Asia/Shanghai,31.941667,119.711667,,
LLA,Kallax,Lulea,Sweden,Europe/Stockholm,65.543758,22.121989,,
LLF,,,,Asia/Chongqing,0,0,,
LLI,Lalibella,Lalibella,Ethiopia,Africa/Addis_Ababa,11.975014,38.979969,,
LLU,Alluitsup Paa Heliport,Alluitsup Paa,Greenland,America/Godthab,60.4644,-45.5778,,
LLW,Kamuzu Intl,Lilongwe,Malawi,Africa/Blantyre,-13.789378,33.781,,
LMA,,,,America/Anchorage,0,0,,
LMC,La Macarena,La Macarena,Colombia,America/Bogota,2.179167,-73.7875,,
LMN,Limbang,Limbang,Malaysia,Asia/Kuching,4.808303,115.010439,,
LMM,Valle Del Fuerte Intl,Los Mochis,Mexico,America/Mazatlan,25.685194,-109.080806,,
LMP,Lampedusa,Lampedusa,Italy,Europe/Rome,35.497914,12.618083,,
LMY,Lake Murray Airport,Lake Murray,Papua New Guinea,Pacific/Port_Moresby,-7.00992,141.494,,
LNB,Lamen Bay Airport,Lamen Bay,Vanuatu,Pacific/Efate,-16.5842,168.159,,
LNE,Lonorore Airport,Lonorore,Vanuatu,Pacific/Efate,-15.8656,168.172,,
LNK,Lincoln,Lincoln,United States,America/Chicago,40.850971,-96.75925,,
LNJ,Lincang Airport,Lincang,China,Asia/Chongqing,23.738333,100.025,,
LNO,Leonora Airport,Leonora,Australia,Australia/Perth,-28.8781,121.315,,
LNV,Londolovit Airport,Londolovit,Papua New Guinea,Pacific/Port_Moresby,-3.04361,152.629,,
LNY,Lanai,Lanai,United States,Pacific/Honolulu,20.785611,-156.951419,,
LNZ,Linz,Linz,Austria,Europe/Vienna,48.233219,14.187511,,
LOD,Longana Airport,Longana,Vanuatu,Pacific/Efate,-15.3067,167.967,,
LOH,Camilo Ponce Enriquez Airport,La Toma (Catamayo),Ecuador,America/Guayaquil,-3.99589,-79.3719,,
LOS,Murtala Muhammed,Lagos,Nigeria,Africa/Lagos,6.577369,3.321156,,
LOU,Bowman Fld,Louisville,United States,America/Kentucky/Louisville,38.228,-85.663722,,
LPA,Gran Canaria,Gran Canaria,Spain,Atlantic/Canary,27.931886,-15.386586,,
UAH,Ua Huka Airport,Ua Huka,French Polynesia,Pacific/Marquesas,-8.93611,-139.552,,
UAK,Narsarsuaq,Narssarssuaq,Greenland,America/Godthab,61.160517,-45.425978,,
LPB,El Alto Intl,La Paz,Bolivia,America/La_Paz,-16.513339,-68.192256,,
LPD,La Pedrera Airport,La Pedrera,Colombia,America/Bogota,-1.33,-69.58,,
LPI,Saab,Linkoeping,Sweden,Europe/Stockholm,58.40615,15.680508,,
UAQ,San Juan,San Julian,Argentina,America/Argentina/San_Juan,-31.571472,-68.418194,,
UAP,Ua Pou Airport,Ua Pou,French Polynesia,Pacific/Marquesas,-9.35167,-140.078,,
LPK,Lipetsk Airport,Lipetsk,Russia,Europe/Moscow,52.7028,39.5378,,
UAS,Samburu South Airport,Samburu South,Kenya,Africa/Nairobi,0.530583,37.5342,,
LPM,Lamap Airport,Lamap,Vanuatu,Pacific/Efate,-16.454,167.823,,
LPL,Liverpool,Liverpool,United Kingdom,Europe/London,53.333611,-2.849722,,
LPQ,Luang Phabang Intl,Luang Prabang,Laos,Asia/Vientiane,19.897914,102.160764,,
LPP,Lappeenranta,Lappeenranta,Finland,Europe/Helsinki,61.044553,28.144397,,
LPS,Lopez Island Airport,Lopez,United States,America/Los_Angeles,48.4839,-122.938,,
LPT,Lampang,Lampang,Thailand,Asia/Bangkok,18.270933,99.504167,,
LPY,Loudes,Le Puy,France,Europe/Paris,45.080689,3.762889,,
LPX,Liepaja Intl,Liepaja,Latvia,UTC,56.5175,21.096944,,
UBJ,Yamaguchi Ube,Yamaguchi,Japan,Asia/Tokyo,33.93,131.278611,,
UBP,Ubon Ratchathani,Ubon Ratchathani,Thailand,Asia/Bangkok,15.251278,104.870231,,
DAB,Daytona Beach Intl,Daytona Beach,United States,America/Kentucky/Monticello,29.179917,-81.058056,,
DAD,Danang Intl,Danang,Vietnam,Asia/Ho_Chi_Minh,16.043917,108.19937,,
DAC,Zia Intl,Dhaka,Bangladesh,Asia/Dhaka,23.843333,90.397781,,
LQM,Caucaya Airport,Puerto Leguízamo,Colombia,America/Bogota,-0.18,-74.77,,
DAL,Dallas Love Fld,Dallas,United States,America/Chicago,32.847111,-96.851778,,
DAM,Damascus Intl,Damascus,Syria,Asia/Damascus,33.410636,36.514267,,
DAR,Mwalimu Julius K Nyerere Intl,Dar Es Salaam,Tanzania,Africa/Dar_es_Salaam,-6.878111,39.202625,,
DAT,Datong Airport,Datong,China,Asia/Shanghai,40.0603,113.482,,
DAU,Daru Airport,Daru,Papua New Guinea,Pacific/Port_Moresby,-9.08676,143.208,,
DAX,Dachuan Airport,Dazhou,China,Asia/Chongqing,31.3,107.5,,
DAY,James M Cox Dayton Intl,Dayton,United States,America/Indiana/Vevay,39.902375,-84.219375,,
LRE,Longreach Airport,Longreach,Australia,Australia/Lindeman,-23.4342,144.28,,
LRD,Laredo Intl,Laredo,United States,America/Chicago,27.54375,-99.461556,,
DBA,Dalbandin Airport,Dalbandin,Pakistan,UTC,28.8783,64.3998,,
LRH,La Rochelle-Ile de Re,La Rochelle,France,Europe/Paris,46.1792,-1.19528,,
LRM,Casa De Campo Intl,La Romana,Dominican Republic,America/Santo_Domingo,18.450711,-68.911833,,
UCT,Ukhta,Ukhta,Russia,Europe/Moscow,63.340297,53.482592,,
LRR,Lar Airport,Lar,Iran,Asia/Tehran,27.674725,54.383278,,
DBO,Dubbo,Dubbo,Australia,Australia/Broken_Hill,-32.216667,148.574722,,
DBV,Dubrovnik,Dubrovnik,Croatia,Europe/Belgrade,42.561353,18.268244,,
UDJ,Uzhhorod International Airport,Uzhgorod,Ukraine,Europe/Uzhgorod,48.634278,22.263356,,
LSA,Losuia Airport,Losuia,Papua New Guinea,Pacific/Port_Moresby,-8.50582,151.081,,
UDI,Ten Cel Av Cesar Bombonato,Uberlandia,Brazil,America/Campo_Grande,-18.882844,-48.225594,,
LSC,La Florida,La Serena,Chile,America/Santiago,-29.916233,-71.199522,,
LSE,La Crosse Municipal,La Crosse,United States,America/Menominee,43.878986,-91.256711,,
LSH,Lashio,Lashio,Burma,Asia/Rangoon,22.977881,97.752183,,
UDR,Udaipur,Udaipur,India,Asia/Kolkata,24.617697,73.8961,,
DCA,Ronald Reagan Washington Natl,Washington,United States,America/New_York,38.852083,-77.037722,,
LSI,Sumburgh,Sumburgh,United Kingdom,Europe/London,59.878889,-1.295556,,
DCF,Canefield,Canefield,Dominica,America/Dominica,15.336719,-61.392211,,
LSP,Josefa Camejo,Paraguana,Venezuela,America/Caracas,11.780775,-70.151497,,
LST,Launceston,Launceston,Australia,Australia/Adelaide,-41.545278,147.214167,,
LSS,Terre-de-Haut Airport,Les Saintes,Guadeloupe,America/Guadeloupe,15.8644,-61.5806,,
DCM,Mazamet,Castres,France,Europe/Paris,43.55625,2.289183,,
LSY,Lismore Airport,Lismore,Australia,Australia/Brisbane,-28.8303,153.26,,
LTD,Ghadames East,Ghadames,Libya,Africa/Tripoli,30.151695,9.715305,,
UEL,Quelimane,Quelimane,Mozambique,Africa/Maputo,-17.8555,36.869106,,
LTI,Altai Airport,Altai,Mongolia,Asia/Hovd,46.3764,96.2211,,
DDC,Dodge City Regional Airport,Dodge City,United States,America/North_Dakota/Center,37.7634,-99.9656,,
LTK,Bassel Al Assad Intl,Latakia,Syria,Asia/Damascus,35.401094,35.948681,,
UET,Quetta,Quetta,Pakistan,Asia/Karachi,30.251369,66.937764,,
DDG,Dandong,Dandong,China,Asia/Harbin,40.0255,124.2866,,
LTO,Loreto Intl,Loreto,Mexico,America/Hermosillo,25.989194,-111.348361,,
LTN,Luton,London,United Kingdom,Europe/London,51.874722,-0.368333,,
LTT,La Môle Airport,La Môle,France,Europe/Paris,43.2054,6.482,,
LTX,Cotopaxi International Airport,Latacunga,Ecuador,America/Guayaquil,-0.5425,-78.3657,,
UFA,Ufa,Ufa,Russia,Asia/Yekaterinburg,54.557511,55.874417,,
LUA,Lukla,Lukla,Nepal,Asia/Kathmandu,27.687778,86.731389,,
LUD,Luderitz Airport,Luderitz,Namibia,Africa/Windhoek,-26.6874,15.2429,,
LUH,Ludhiana,Ludhiaha,India,Asia/Kolkata,30.854681,75.952592,,
LUG,Lugano,Lugano,Switzerland,Europe/Zurich,46.004275,8.910578,,
DEA,Dera Ghazi Khan Airport,Dera Ghazi Khan,Pakistan,Asia/Karachi,29.961011,70.485925,,
DED,Dehradun,Dehra Dun,India,Asia/Kolkata,30.189689,78.180256,,
DEC,Decatur,Decatur,United States,America/Chicago,39.834564,-88.865689,,
LUN,Lusaka Intl,Lusaka,Zambia,Africa/Lusaka,-15.330817,28.452628,,
LUM,Mangshi Airport,Luxi,China,Asia/Chongqing,24.4011,98.5317,,
LUP,Kalaupapa Airport,Molokai,United States,Pacific/Honolulu,21.211,-156.974,,
LUO,Luena,Luena,Angola,Africa/Luanda,-11.768086,19.897672,,
LUR,Cape Lisburne Lrrs,Cape Lisburne,United States,America/Nome,68.875133,-166.110022,,
LUQ,San Luis,San Luis,Argentina,America/Argentina/Mendoza,-33.273192,-66.356422,,
DEL,Indira Gandhi Intl,Delhi,India,Asia/Kolkata,28.5665,77.103088,,
DEN,Denver Intl,Denver,United States,America/Denver,39.861656,-104.673178,,
LUV,Dumatubun Airport,Langgur-Kei Islands,Indonesia,Asia/Makassar,-5.661619,132.731431,,
LUX,Luxembourg,Luxemburg,Luxembourg,Europe/Luxembourg,49.626575,6.211517,,
UGC,Urgench Airport,Urgench,Uzbekistan,Asia/Samarkand,41.5843,60.6417,,
UGB,,,,America/Anchorage,0,0,,
UGI,,,,America/Anchorage,0,0,,
DEZ,Deir Zzor,Deire Zor,Syria,Asia/Damascus,35.285374,40.175961,,
LVI,Livingstone,Livingstone,Zambia,Africa/Lusaka,-17.821756,25.822692,,
LVO,Laverton Airport,Laverton,Australia,Australia/Perth,-28.6136,122.424,,
DFW,Dallas Fort Worth Intl,Dallas-Fort Worth,United States,America/Chicago,32.896828,-97.037997,,
LWB,Greenbrier Valley Airport,Lewisburg,United States,America/Kentucky/Monticello,37.858333,-80.399444,,
DGA,Dangriga Airport,Dangriga,Belize,America/Belize,16.966667,-88.216667,,
LWN,Gyumri,Gyumri,Armenia,Asia/Yerevan,40.750369,43.859342,,
DGE,Mudgee Airport,Mudgee,Australia,Australia/Brisbane,-32.5625,149.611,,
LWO,Lviv Intl,Lvov,Ukraine,Europe/Uzhgorod,49.8125,23.956111,,
LWT,Lewistown Municipal Airport,Lewistown,United States,America/Boise,47.0493,-109.467,,
LWS,Lewiston Nez Perce Co,Lewiston,United States,America/Los_Angeles,46.3745,-117.015389,,
DGM,,,,Asia/Chongqing,0,0,,
DGO,Durango Intl,Durango,Mexico,America/Monterrey,24.124194,-104.528014,,
LWY,Lawas Airport,Lawas,Malaysia,Asia/Kuching,4.84917,115.408,,
UIB,El Carano,Quibdo,Colombia,America/Bogota,5.690758,-76.641181,,
DGT,Dumaguete,Dumaguete,Philippines,Asia/Manila,9.333714,123.300472,,
LXA,Lhasa-Gonggar,Lhasa,China,Asia/Urumqi,29.297778,90.911944,,
UII,Utila Airport,Utila,Honduras,America/Tegucigalpa,16.091667,-86.8875,,
UIH,Phu Cat Airport,Phucat,Vietnam,Asia/Ho_Chi_Minh,13.954986,109.042267,,
LXG,Luang Namtha,Luang Namtha,Laos,UTC,20.960556,101.4025,,
UIO,Mariscal Sucre Intl,Quito,Ecuador,America/Guayaquil,-0.141144,-78.488214,,
UIN,Quincy Regional Baldwin Field,Quincy,United States,America/Chicago,39.9427,-91.1946,,
LXS,Limnos,Limnos,Greece,Europe/Athens,39.917072,25.236308,,
LXR,Luxor Intl,Luxor,Egypt,Africa/Cairo,25.671028,32.706583,,
DHM,Kangra Airport,Kangra,India,Asia/Kolkata,32.1651,76.2634,,
LYB,Edward Bodden Airfield,Little Cayman,Cayman Islands,America/Cayman,19.6591666667,-80.09083333,,
LYA,Luoyang Airport,Luoyang,China,Asia/Shanghai,34.41,112.28,,
LYC,Lycksele,Lycksele,Sweden,Europe/Stockholm,64.548322,18.716219,,
LYH,Lynchburg Regional Preston Glenn Field,Lynchburg,United States,America/Kentucky/Monticello,37.3267,-79.2004,,
LYG,Lianyungang Airport,Lianyungang,China,Asia/Shanghai,34.55,119.25,,
DIB,Dibrugarh Airport,Dibrugarh,India,Asia/Kolkata,27.4839,95.0169,,
LYI,Shubuling Airport,Linyi,China,Asia/Shanghai,35.0461,118.412,,
DIE,Arrachart,Antsiranana,Madagascar,Indian/Antananarivo,-12.3494,49.291747,,
LYP,Faisalabad Intl,Faisalabad,Pakistan,Asia/Karachi,31.365014,72.994842,,
DIG,Diqing Airport,Shangri-La,China,Asia/Chongqing,27.7936,99.6772,,
LYR,Longyear,Svalbard,Norway,Europe/Oslo,78.246111,15.465556,,
DIL,Presidente Nicolau Lobato Intl,Dili,East Timor,Asia/Dili,-8.546553,125.524719,,
DIK,Dickinson Theodore Roosevelt Regional Airport,Dickinson,United States,America/Denver,46.7975,-102.801944,,
LYS,Saint Exupery,Lyon,France,Europe/Paris,45.726387,5.090833,,
DIN,Dien Bien Phu Airport,Dienbienphu,Vietnam,Asia/Ho_Chi_Minh,21.397481,103.007831,,
DIR,Dire Dawa Intl,Dire Dawa,Ethiopia,Africa/Addis_Ababa,9.6247,41.854203,,
UKB,Kobe,Kobe,Japan,Asia/Tokyo,34.632778,135.223889,,
DIS,Loubomo Airport,Loubomo,Congo (Brazzaville),UTC,-4.2,12.7,,
DIU,Diu Airport,Diu,India,Asia/Kolkata,20.7131,70.9211,,
LZC,Lazaro Cardenas,Lazard Cardenas,Mexico,America/Monterrey,18.001731,-102.220525,,
UKK,Ust Kamenogorsk Airport,Ust Kamenogorsk,Kazakhstan,Asia/Almaty,50.0366,82.4942,,
DIY,Diyarbakir,Diyabakir,Turkey,Europe/Istanbul,37.893897,40.201019,,
LZH,Bailian Airport,Liuzhou,China,Asia/Shanghai,24.2075,109.391,,
DJB,Sultan Thaha,Jambi,Indonesia,Asia/Jakarta,-1.638017,103.644378,,
DJE,Zarzis,Djerba,Tunisia,Africa/Tunis,33.875031,10.775461,,
DJG,Tiska,Djanet,Algeria,Africa/Algiers,24.292767,9.452444,,
LZO,Luzhou Airport,Luzhou,China,Asia/Chongqing,28.8522,105.393,,
LZN,Matsu Nangan Airport,Matsu Islands,Taiwan,Asia/Taipei,26.1598,119.958,,
DJJ,Sentani,Jayapura,Indonesia,Asia/Jayapura,-2.576953,140.516372,,
ULB,Uléi Airport,Ambryn Island,Vanuatu,Pacific/Efate,-16.333,168.283,,
ULN,Chinggis Khaan Intl,Ulan Bator,Mongolia,Asia/Ulaanbaatar,47.843056,106.766639,,
ULP,Quilpie Airport,Quilpie,Australia,Australia/Broken_Hill,-26.6122,144.253,,
ULO,Ulaangom Airport,Ulaangom,Mongolia,UTC,49.973333,92.079722,,
ULU,Gulu Airport,Gulu,Uganda,Africa/Kampala,2.805556,32.271792,,
ULY,Ulyanovsk East Airport,Ulyanovsk,Russia,Europe/Moscow,54.401,48.8027,,
DKR,Leopold Sedar Senghor Intl,Dakar,Senegal,Africa/Dakar,14.739708,-17.490225,,
UME,Umea,Umea,Sweden,Europe/Stockholm,63.791828,20.282758,,
UMD,Uummannaq Heliport,Uummannaq,Greenland,America/Godthab,70.4047,52.0702,,
DLA,Douala,Douala,Cameroon,Africa/Douala,4.006081,9.719481,,
DLC,Zhoushuizi,Dalian,China,Asia/Harbin,38.965667,121.5386,,
DLG,Dillingham,Dillingham,United States,America/Anchorage,59.044667,-158.5055,,
DLI,Dalat,Dalat,Vietnam,Asia/Ho_Chi_Minh,11.75,108.367,,
DLH,Duluth Intl,Duluth,United States,America/Menominee,46.842091,-92.193649,,
DLM,Dalaman,Dalaman,Turkey,Europe/Istanbul,36.713056,28.7925,,
DLU,Dali,Dali,China,Asia/Chongqing,25.649444,100.319444,,
UNG,Kiunga Airport,Kiunga,Papua New Guinea,Pacific/Port_Moresby,-6.12571,141.282,,
DLY,Dillon's Bay Airport,Dillon's Bay,Vanuatu,Pacific/Efate,-18.7694,169.001,,
DLZ,Dalanzadgad Airport,Dalanzadgad,Mongolia,Asia/Ulaanbaatar,43.5917,104.43,,
UNK,Unalakleet Airport,Unalakleet,United States,America/Nome,63.888333,-160.798889,,
UNN,Ranong,Ranong,Thailand,Asia/Bangkok,9.777622,98.585483,,
DMD,Doomadgee Airport,Doomadgee,Australia,Australia/Lindeman,-17.9403,138.822,,
DME,Domododevo,Moscow,Russia,Europe/Moscow,55.408611,37.906111,,
DMM,King Fahd Intl,Dammam,Saudi Arabia,Asia/Riyadh,26.471161,49.79789,,
DMU,Dimapur Airport,Dimapur,India,Asia/Kolkata,25.8839,93.7711,,
DND,Dundee,Dundee,United Kingdom,Europe/London,56.452499,-3.025833,,
DNH,Dunhuang Airport,Dunhuang,China,Asia/Urumqi,40.094,94.4818,,
DNK,Dnipropetrovsk Intl,Dnepropetrovsk,Ukraine,Europe/Zaporozhye,48.357222,35.100556,,
DNR,Pleurtuit,Dinard,France,Europe/Paris,48.587683,-2.079958,,
UPG,Hasanuddin,Ujung Pandang,Indonesia,Asia/Makassar,-5.061631,119.554042,,
DNZ,Cardak,Denizli,Turkey,Europe/Istanbul,37.785567,29.701297,,
DOH,Doha Intl,Doha,Qatar,Asia/Qatar,25.261125,51.565056,,
DOG,Dongola,Dongola,Sudan,Africa/Khartoum,19.153867,30.430094,,
DOK,Donetsk Intl,Donetsk,Ukraine,Europe/Zaporozhye,48.073611,37.739722,,
DOM,Melville Hall,Dominica,Dominica,America/Dominica,15.547028,-61.3,,
DOP,Dolpa,Dolpa,Nepal,Asia/Kathmandu,28.985718,82.819145,,
MAA,Chennai Intl,Madras,India,Asia/Kolkata,12.994414,80.180517,,
DOY,Dongying Airport,Dongying,China,Asia/Shanghai,37.2716,118.2819,,
MAB,Maraba,Maraba,Brazil,America/Araguaina,-5.368589,-49.138025,,
MAD,Barajas,Madrid,Spain,Europe/Madrid,40.493556,-3.566764,,
MAG,Madang,Madang,Papua New Guinea,Pacific/Port_Moresby,-5.207083,145.7887,,
MAF,Midland Intl,Midland,United States,America/North_Dakota/Center,31.942528,-102.201914,,
MAH,Menorca,Menorca,Spain,Europe/Madrid,39.862597,4.218647,,
MAK,Malakal,Malakal,Sudan,Africa/Khartoum,9.558969,31.652242,,
MAJ,Marshall Islands Intl,Majuro,Marshall Islands,Pacific/Majuro,7.064758,171.272022,,
MAO,Eduardo Gomes Intl,Manaus,Brazil,America/Manaus,-3.038611,-60.049721,,
MAN,Manchester,Manchester,United Kingdom,Europe/London,53.353744,-2.27495,,
MAS,Momote Airport,Momote,Papua New Guinea,Pacific/Port_Moresby,-2.06189,147.424,,
MAR,La Chinita Intl,Maracaibo,Venezuela,America/Caracas,10.558208,-71.727856,,
MAU,Maupiti,Maupiti,French Polynesia,Pacific/Tahiti,-16.426486,-152.243669,,
DPL,Dipolog,Dipolog,Philippines,Asia/Manila,8.601261,123.334481,,
URA,Uralsk,Uralsk,Kazakhstan,Asia/Oral,51.150833,51.543056,,
DPS,Bali Ngurah Rai,Denpasar,Indonesia,Asia/Makassar,-8.748169,115.167172,,
MAZ,Eugenio Maria De Hostos,Mayaguez,Puerto Rico,America/Puerto_Rico,18.255694,-67.148472,,
URC,Diwopu,Urumqi,China,Asia/Urumqi,43.907106,87.474244,,
URE,Kuressaare,Kuressaare,Estonia,Europe/Tallinn,58.229883,22.509494,,
URJ,Uraj,Uraj,Russia,Asia/Yekaterinburg,60.1,64.83,,
MBA,Mombasa Moi Intl,Mombasa,Kenya,Africa/Nairobi,-4.034833,39.59425,,
MBH,Maryborough Airport,Maryborough,Australia,Australia/Brisbane,-25.5133,152.715,,
URO,Vallee De Seine,Rouen,France,Europe/Paris,49.384172,1.1748,,
MBJ,Sangster Intl,Montego Bay,Jamaica,America/Jamaica,18.503717,-77.913358,,
MBL,Manistee County-Blacker Airport,Manistee,United States,America/Indiana/Knox,44.2725,-86.246944,,
URT,Surat Thani,Surat Thani,Thailand,Asia/Bangkok,9.1325,99.135556,,
URS,Kursk East Airport,Kursk,Russia,Europe/Moscow,51.7506,36.2956,,
URY,Guriat,Guriat,Saudi Arabia,Asia/Riyadh,31.411942,37.279469,,
MBT,Masbate Airport,Masbate,Philippines,Asia/Manila,12.3694,123.629,,
